time,timestamp,recordtime,lat,long,alt,speed,course,verticalAccuracy,horizontalAccuracy,locTimeStamp,accelerationX,accelerationY,accelerationZ,HeadingX,HeadingY,HeadingZ,TrueHeading,MagneticHeading,HeadingAccuracy,RotationX,RotationY,RotationZ,motionYaw,motionRoll,motionPitch,motionRotationRateX,motionRotationRateY,motionRotationRateZ,motionUserAccelerationX,motionUserAccelerationY,motionUserAccelerationZ,en0,pdp_ip0,DeviceOrientation,Activity,Activity Confidence,Activity Start,Steps,Last Step Date,State
2014-09-25 20:24:47.725,1,0.01,0,0,0,0,0,0,0,-1,0.1002502,-0.0435791,-1.021652,0,0,0,0,0,-1,-0.03041223,0.008768991,0.005517271,2.945251,0.09470257,0.04494191,-0.001333972,-0.003987784,0.0005593202,0.004335061,0.001057761,0.0006936783,192.168.1.4,10.24.231.91,5,stationary,2,2014-09-25 20:24:47.347,0,2014-09-25 20:20:33.625,0
2014-09-25 20:24:47.750,2,0.02,0,0,0,0,0,0,0,-1,0.09802246,-0.04719543,-1.002609,0,0,0,0,0,-1,-0.03041117,0.005131379,0.004285559,2.945237,0.09486882,0.04467549,-0.01138985,-0.0002836509,-0.00216139,0.005618183,0.001081529,-0.02714219,192.168.1.4,10.24.231.91,5,stationary,2,2014-09-25 20:24:47.347,0,2014-09-25 20:20:33.625,0
2014-09-25 20:24:47.776,3,0.03,0,0,0,0,0,0,0,-1,0.09701538,-0.04722595,-1.012955,0,0,0,0,0,-1,-0.01778166,-0.005883455,0.002112952,2.945195,0.09490543,0.04450569,-0.01640706,0.0009480688,-0.002254853,0.003353276,-0.002704438,-0.008095152,192.168.1.4,10.24.231.91,5,stationary,2,2014-09-25 20:24:47.347,0,2014-09-25 20:20:33.625,0
2014-09-25 20:24:47.798,4,0.04,0,0,0,0,0,0,0,-1,0.09759521,-0.04449463,-1.01181,0,0,0,0,0,-1,-0.02414076,-0.004604339,0.004455202,2.945167,0.09480023,0.0445751,-0.003776851,-0.01006665,-0.004427354,0.002451103,-0.002665618,-0.01843373,192.168.1.4,10.24.231.91,5,stationary,2,2014-09-25 20:24:47.347,0,2014-09-25 20:20:33.625,0
2014-09-25 20:24:47.826,5,0.05,0,0,0,0,0,0,0,-1,0.08909607,-0.04684448,-1.00293,0,0,0,0,0,-1,-0.03936525,-0.009306683,0.005377455,2.945118,0.09448981,0.04410479,-0.02025304,-0.01233782,-0.003540494,-0.0002175987,0.0005266473,-0.0138213,192.168.1.4,10.24.231.91,5,stationary,2,2014-09-25 20:24:47.347,0,2014-09-25 20:20:33.625,0
2014-09-25 20:24:47.848,6,0.06,0,0,0,0,0,0,0,-1,0.08808899,-0.05000305,-1.013184,0,0,0,0,0,-1,-0.03809492,-0.00446985,0.006633402,2.945148,0.09405585,0.04366188,-0.02285977,-0.01107793,0.001371552,-0.004731657,-0.00319647,-0.008298495,192.168.1.4,10.24.231.91,5,stationary,2,2014-09-25 20:24:47.347,0,2014-09-25 20:20:33.625,0
2014-09-25 20:24:47.870,7,0.07,0,0,0,0,0,0,0,-1,0.08665466,-0.05010986,-1.012131,0,0,0,0,0,-1,-0.03299603,0.002747317,0.006722884,2.94521,0.0936144,0.04329821,-0.02408933,-0.008655196,9.344194E-005,-0.005301128,-0.006718374,-0.01849534,192.168.1.4,10.24.231.91,5,stationary,2,2014-09-25 20:24:47.347,0,2014-09-25 20:20:33.625,0
2014-09-25 20:24:47.893,8,0.08,0,0,0,0,0,0,0,-1,0.0930481,-0.04574585,-1.007782,0,0,0,0,0,-1,-0.02664359,0.0002580603,0.004384362,2.945272,0.09318323,0.04310086,-0.018989,-0.001439773,0.0001832337,-0.003484479,-0.005847423,-0.01632571,192.168.1.4,10.24.231.91,5,stationary,2,2014-09-25 20:24:47.347,0,2014-09-25 20:20:33.625,0
2014-09-25 20:24:47.920,9,0.09,0,0,0,0,0,0,0,-1,0.09466553,-0.04508972,-1.012161,0,0,0,0,0,-1,-0.02535223,0.005087703,0.004397411,2.945279,0.09300095,0.04285691,-0.01263621,-0.00392951,-0.002155184,0.0002664267,-0.002902056,-0.0130177,192.168.1.4,10.24.231.91,5,stationary,2,2014-09-25 20:24:47.347,0,2014-09-25 20:20:33.625,0
2014-09-25 20:24:47.942,10,0.09999999,0,0,0,0,0,0,0,-1,0.09609985,-0.03921509,-1.007431,0,0,0,0,0,-1,-0.01656113,0.00139523,0.007090134,2.945261,0.09304297,0.04267792,-0.01134458,0.0009002683,-0.002142085,0.001841341,-0.002424758,-0.01739326,192.168.1.4,10.24.231.91,5,stationary,2,2014-09-25 20:24:47.347,0,2014-09-25 20:20:33.625,0
2014-09-25 20:24:47.963,11,0.11,0,0,0,0,0,0,0,-1,0.09686279,-0.04205322,-1.021255,0,0,0,0,0,-1,-0.01909513,-0.007068296,0.004574512,2.945259,0.09293342,0.04250433,-0.000035866,-0.0149715,-0.0003926513,0.006496756,0.001735303,-0.01423242,192.168.1.4,10.24.231.91,5,stationary,2,2014-09-25 20:24:47.347,0,2014-09-25 20:20:33.625,0
2014-09-25 20:24:47.995,12,0.12,0,0,0,0,0,0,0,-1,0.09475708,-0.04454041,-1.004364,0,0,0,0,0,-1,-0.01156877,-0.01074985,0.007239271,2.945226,0.09268158,0.04245681,0.005021567,-0.0113768,0.0009508765,0.004473538,-0.001775916,-0.01634333,192.168.1.4,10.24.231.91,5,stationary,2,2014-09-25 20:24:47.347,0,2014-09-25 20:20:33.625,0
2014-09-25 20:24:48.019,13,0.13,0,0,0,0,0,0,0,-1,0.09440613,-0.04495239,-1.007904,0,0,0,0,0,-1,-0.006523147,-0.01321381,0.00735858,2.945199,0.0924228,0.04254825,0.00247231,-0.01498513,0.0009061711,0.002198381,-0.001638786,-0.00963995,192.168.1.4,10.24.231.91,5,stationary,2,2014-09-25 20:24:47.347,0,2014-09-25 20:20:33.625,0
2014-09-25 20:24:48.040,14,0.14,0,0,0,0,0,0,0,-1,0.09387207,-0.04679871,-1.016037,0,0,0,0,0,-1,-0.005216334,-0.01323911,0.004900749,2.945186,0.09226616,0.0425965,0.002528895,-0.01621675,-0.00281877,0.002354404,-0.002368772,-0.01306079,192.168.1.4,10.24.231.91,5,stationary,2,2014-09-25 20:24:47.347,0,2014-09-25 20:20:33.625,0
2014-09-25 20:24:48.063,15,0.15,0,0,0,0,0,0,0,-1,0.08891296,-0.04364014,-1.00499,0,0,0,0,0,-1,-0.003804059,0.009735452,0.003614975,2.945109,0.09167814,0.04299407,0.01391089,-0.01267778,-0.001335277,-0.00139254,-0.001071298,-0.02185861,192.168.1.4,10.24.231.91,5,stationary,2,2014-09-25 20:24:47.347,0,2014-09-25 20:20:33.625,0
2014-09-25 20:24:48.087,16,0.16,0,0,0,0,0,0,0,-1,0.08934021,-0.04328918,-1.001785,0,0,0,0,0,-1,-0.007707987,0.001318797,0.007285876,2.945085,0.09152277,0.04332525,0.01023778,0.00549924,-0.002717891,-0.002396323,-0.0003284352,-0.01010937,192.168.1.4,10.24.231.91,5,stationary,2,2014-09-25 20:24:47.347,0,2014-09-25 20:20:33.625,0
2014-09-25 20:24:48.108,17,0.17,0,0,0,0,0,0,0,-1,0.09802246,-0.04838562,-1.013489,0,0,0,0,0,-1,-0.005204083,-0.007181214,0.006125004,2.945092,0.09142653,0.0434889,0.006333511,-0.002917919,0.0009530546,-0.0009418921,-0.0001496785,-0.01140466,192.168.1.4,10.24.231.91,5,stationary,2,2014-09-25 20:24:47.347,0,2014-09-25 20:20:33.625,0
2014-09-25 20:24:48.130,18,0.18,0,0,0,0,0,0,0,-1,0.09423828,-0.04823303,-1.020264,0,0,0,0,0,-1,-0.01038393,-0.02528245,0.007311975,2.945077,0.09124013,0.04375633,0.008875552,-0.0114701,-4.194759E-006,0.003089827,-0.002583318,-0.02961828,192.168.1.4,10.24.231.91,5,stationary,2,2014-09-25 20:24:47.347,0,2014-09-25 20:20:33.625,0
2014-09-25 20:24:48.154,19,0.19,0,0,0,0,0,0,0,-1,0.09272766,-0.04798889,-1.013809,0,0,0,0,0,-1,-0.03292413,-0.003339338,0.0005270396,2.945109,0.09075822,0.04389411,0.003695998,-0.02957143,0.001182844,0.003691901,-0.004353014,-0.0253386,192.168.1.4,10.24.231.91,5,stationary,2,2014-09-25 20:24:47.347,0,2014-09-25 20:20:33.625,0
2014-09-25 20:24:48.177,20,0.2,0,0,0,0,0,0,0,-1,0.08978271,-0.05131531,-1.00061,0,0,0,0,0,-1,-0.0266902,-0.008212922,0.004410461,2.945042,0.0903144,0.04380388,-0.01884332,-0.007628078,-0.005601999,0.002622502,-0.004199019,-0.01884011,192.168.1.4,10.24.231.91,5,stationary,2,2014-09-25 20:24:47.347,0,2014-09-25 20:20:33.625,0
2014-09-25 20:24:48.199,21,0.21,0,0,0,0,0,0,0,-1,0.09425354,-0.04655457,-1.009827,0,0,0,0,0,-1,-0.01902083,0.002605637,0.003301787,2.945,0.09001815,0.04354611,-0.01260844,-0.01250325,-0.001718341,-0.008894051,-0.007279423,-0.007236084,192.168.1.4,10.24.231.91,5,stationary,2,2014-09-25 20:24:47.347,0,2014-09-25 20:20:33.625,0
2014-09-25 20:24:48.223,22,0.22,0,0,0,0,0,0,0,-1,0.09921265,-0.05007935,-1.027664,0,0,0,0,0,-1,-0.01411156,-0.01314829,0.007190801,2.944924,0.08959183,0.04379185,0.003739655,-0.02231212,0.001161047,0.001189924,-0.009292216,-0.03638338,192.168.1.4,10.24.231.91,5,stationary,2,2014-09-25 20:24:47.347,0,2014-09-25 20:20:33.625,0
2014-09-25 20:24:48.247,23,0.23,0,0,0,0,0,0,0,-1,0.07809448,-0.04698181,-1.008011,0,0,0,0,0,-1,-0.03158269,0.02208426,0.004205398,2.944934,0.08909661,0.0441131,-2.720076E-005,-0.01743778,0.001062269,0.007650142,-0.005782183,-0.0289833,192.168.1.4,10.24.231.91,5,stationary,2,2014-09-25 20:24:47.347,0,2014-09-25 20:20:33.625,0
2014-09-25 20:24:48.273,24,0.24,0,0,0,0,0,0,0,-1,0.08479309,-0.04452515,-0.9806976,0,0,0,0,0,-1,-0.03284077,0.02330532,0.004173706,2.944968,0.08903725,0.04414375,-0.01749768,0.01779331,-0.001922928,-0.01073854,-0.00285239,-0.01294238,192.168.1.4,10.24.231.91,5,stationary,2,2014-09-25 20:24:47.347,0,2014-09-25 20:20:33.625,0
2014-09-25 20:24:48.295,25,0.25,0,0,0,0,0,0,0,-1,0.09764099,-0.04434204,-1.039627,0,0,0,0,0,-1,-0.02533998,0.0111456,0.005621667,2.944942,0.08931472,0.04369548,-0.01872932,0.01412994,-0.003005343,0.002472369,0.000239804,-0.009178543,192.168.1.4,10.24.231.91,5,stationary,2,2014-09-25 20:24:47.347,0,2014-09-25 20:20:33.625,0
2014-09-25 20:24:48.322,26,0.26,0,0,0,0,0,0,0,-1,0.1004333,-0.03652954,-1.017105,0,0,0,0,0,-1,-0.02167334,-0.008242217,0.007008108,2.944949,0.0894404,0.0434792,-0.001198467,-0.01021083,-5.352091E-005,0.008404209,-0.0008765348,-0.0445655,192.168.1.4,10.24.231.91,5,stationary,2,2014-09-25 20:24:47.347,0,2014-09-25 20:20:33.625,0
2014-09-25 20:24:48.344,27,0.27,0,0,0,0,0,0,0,-1,0.08831787,-0.04988098,-1.014328,0,0,0,0,0,-1,-0.03931758,-0.004473312,0.004119644,2.944955,0.08961117,0.04316701,-0.007557782,-0.01256697,0.001056769,0.01364995,1.700628E-005,-0.0251581,192.168.1.4,10.24.231.91,5,stationary,2,2014-09-25 20:24:47.347,0,2014-09-25 20:20:33.625,0
2014-09-25 20:24:48.366,28,0.28,0,0,0,0,0,0,0,-1,0.08360291,-0.054245,-1.011185,0,0,0,0,0,-1,-0.03922783,0.0003456783,0.0003760383,2.944929,0.0894529,0.04301484,-0.02520105,-0.008797783,-0.001831586,-0.0009331435,-0.00687941,-0.01924754,192.168.1.4,10.24.231.91,5,stationary,2,2014-09-25 20:24:47.347,0,2014-09-25 20:20:33.625,0
2014-09-25 20:24:48.389,29,0.29,0,0,0,0,0,0,0,-1,0.08790588,-0.04223633,-1.022812,0,0,0,0,0,-1,-0.03800411,-0.003288471,0.001658084,2.94483,0.08916686,0.04271881,-0.02510986,-0.003980075,-0.005574935,-0.005364601,-0.01153917,-0.01606611,192.168.1.4,10.24.231.91,5,stationary,2,2014-09-25 20:24:47.347,0,2014-09-25 20:20:33.625,0
2014-09-25 20:24:48.412,30,0.3,0,0,0,0,0,0,0,-1,0.09318542,-0.04629517,-1.029251,0,0,0,0,0,-1,-0.03290416,0.0002910835,0.0005158543,2.944762,0.08892508,0.04222697,-0.02000882,-0.004038821,-0.007948791,-0.0008228789,-2.190987E-005,-0.02765102,192.168.1.4,10.24.231.91,5,stationary,2,2014-09-25 20:24:47.347,0,2014-09-25 20:20:33.625,0
2014-09-25 20:24:48.434,31,0.31,0,0,0,0,0,0,0,-1,0.09552002,-0.04762268,-1.010681,0,0,0,0,0,-1,-0.01910072,-0.01191605,0.003346528,2.944692,0.08875299,0.04195181,-0.01878641,-0.004035594,-0.005435006,0.00334516,0.0007865475,-0.03093539,192.168.1.4,10.24.231.91,5,stationary,2,2014-09-25 20:24:47.347,0,2014-09-25 20:20:33.625,0
2014-09-25 20:24:48.455,32,0.32,0,0,0,0,0,0,0,-1,0.09527588,-0.04309082,-1.025116,0,0,0,0,0,-1,0.001108408,-0.01693131,0.003808853,2.944642,0.08865105,0.04192801,-0.00498181,-0.01624195,-0.002604238,0.00706285,-0.005706951,-0.01548348,192.168.1.4,10.24.231.91,5,stationary,2,2014-09-25 20:24:47.347,0,2014-09-25 20:20:33.625,0
2014-09-25 20:24:48.480,33,0.33,0,0,0,0,0,0,0,-1,0.08956909,-0.03782654,-1.033936,0,0,0,0,0,-1,0.01633397,-0.01586658,0.001654888,2.944556,0.08841579,0.04210468,0.01526416,-0.02129146,-0.001966735,0.007053496,-0.0009985744,-0.02990491,192.168.1.4,10.24.231.91,5,stationary,2,2014-09-25 20:24:47.347,0,2014-09-25 20:20:33.625,0
2014-09-25 20:24:48.502,34,0.34,0,0,0,0,0,0,0,-1,0.08355713,-0.03636169,-1.017746,0,0,0,0,0,-1,0.002357696,-0.01208729,0.006307697,2.944412,0.08786795,0.04235587,0.03048869,-0.02022677,-0.004120773,0.001892878,0.004516663,-0.03868687,192.168.1.4,10.24.231.91,5,stationary,2,2014-09-25 20:24:47.347,0,2014-09-25 20:20:33.625,0
2014-09-25 20:24:48.524,35,0.35,0,0,0,0,0,0,0,-1,0.08380127,-0.04165649,-1.012115,0,0,0,0,0,-1,-0.02571575,-0.02267362,0.01691214,2.944351,0.08709191,0.04264014,0.007670391,-0.01395226,0.000328774,-0.00334566,0.006265527,-0.02244158,192.168.1.4,10.24.231.91,5,stationary,2,2014-09-25 20:24:47.347,0,2014-09-25 20:20:33.625,0
2014-09-25 20:24:48.548,36,0.36,0,0,0,0,0,0,0,-1,0.09635925,-0.04701233,-1.031525,0,0,0,0,0,-1,0.01196239,-0.05564622,0.02282329,2.944547,0.08648755,0.04258337,-0.01156317,-0.02703604,0.0111365,0.003679612,-0.008882137,-0.03070288,192.168.1.4,10.24.231.91,5,stationary,2,2014-09-25 20:24:47.347,0,2014-09-25 20:20:33.625,0
2014-09-25 20:24:48.572,37,0.37,0,0,0,0,0,0,0,-1,0.09156799,-0.04335022,-1.028641,0,0,0,0,0,-1,0.004180097,-0.06400135,0.03138189,2.944923,0.08571899,0.04312059,0.02611585,-0.06000757,0.0170477,0.01082478,-0.003905102,-0.03612242,192.168.1.4,10.24.231.91,5,stationary,2,2014-09-25 20:24:47.347,0,2014-09-25 20:20:33.625,0
2014-09-25 20:24:48.593,38,0.38,0,0,0,0,0,0,0,-1,0.08552551,-0.04077148,-1.024673,0,0,0,0,0,-1,0.009092831,-0.06763231,0.03896231,2.945392,0.08447492,0.04358122,0.01833305,-0.06836196,0.02560624,0.007273622,0.0002172031,-0.03315276,192.168.1.4,10.24.231.91,5,stationary,2,2014-09-25 20:24:47.347,0,2014-09-25 20:20:33.625,0
2014-09-25 20:24:48.613,39,0.39,0,0,0,0,0,0,0,-1,0.07374573,-0.04139709,-1.014404,0,0,0,0,0,-1,-0.03646134,-0.01024758,0.05766676,2.946087,0.08297235,0.04396083,0.01187937,-0.05735139,0.03661891,0.002728401,0.003175191,-0.02907649,192.168.1.4,10.24.231.91,5,stationary,2,2014-09-25 20:24:47.347,0,2014-09-25 20:20:33.625,0
2014-09-25 20:24:48.640,40,0.4,0,0,0,0,0,0,0,-1,0.08087158,-0.04785156,-0.9933014,0,0,0,0,0,-1,-0.04303082,-0.008896556,0.07243798,2.947054,0.08211441,0.04358153,-0.02229181,-0.0146366,0.05204283,-0.006962587,0.003192985,-0.02793643,192.168.1.4,10.24.231.91,5,stationary,2,2014-09-25 20:24:47.347,0,2014-09-25 20:20:33.625,0
2014-09-25 20:24:48.662,41,0.41,0,0,0,0,0,0,0,-1,0.08805847,-0.04866028,-1.020615,0,0,0,0,0,-1,-0.01264283,-0.006745521,0.07185874,2.948422,0.0816533,0.04314634,-0.02886088,-0.0132868,0.0668142,-0.0006151062,-0.004718607,0.002439271,192.168.1.4,10.24.231.91,5,stationary,2,2014-09-25 20:24:47.347,0,2014-09-25 20:20:33.625,0
2014-09-25 20:24:48.683,42,0.42,0,0,0,0,0,0,0,-1,0.08889771,-0.04519653,-1.033432,0,0,0,0,0,-1,0.03016403,-0.03857322,0.07414933,2.950563,0.08137631,0.04338517,0.01923869,-0.002802227,0.06908619,0.00498687,-0.001611353,-0.03848782,192.168.1.4,10.24.231.91,5,stationary,2,2014-09-25 20:24:47.347,0,2014-09-25 20:20:33.625,0
2014-09-25 20:24:48.707,43,0.43,0,0,0,0,0,0,0,-1,0.0900116,-0.0531311,-1.030136,0,0,0,0,0,-1,0.03800837,-0.02660205,0.06309375,2.95198,0.08096562,0.0442763,0.04433445,-0.04296131,0.06852553,0.01131938,0.001384634,-0.02949079,192.168.1.4,10.24.231.91,5,stationary,2,2014-09-25 20:24:47.347,0,2014-09-25 20:20:33.625,0
2014-09-25 20:24:48.731,44,0.44,0,0,0,0,0,0,0,-1,0.08595276,-0.05001831,-1.030502,0,0,0,0,0,-1,0.03429699,-0.04599625,0.05188344,2.953261,0.08029505,0.04553707,0.05217941,-0.03098847,0.05746993,0.009885948,-0.007609766,-0.03439132,192.168.1.4,10.24.231.91,5,stationary,2,2014-09-25 20:24:47.347,0,2014-09-25 20:20:33.625,0
2014-09-25 20:24:48.768,45,0.45,0,0,0,0,0,0,0,-1,0.08638,-0.04852295,-1.037827,0,0,0,0,0,-1,0.04085955,-0.07159323,0.0297294,2.954933,0.07822569,0.04814405,0.05865173,-0.08080073,0.03290471,0.009270666,-0.00157242,-0.03369321,192.168.1.4,10.24.231.91,5,stationary,2,2014-09-25 20:24:47.347,0,2014-09-25 20:20:33.625,0
2014-09-25 20:24:48.809,46,0.46,0,0,0,0,0,0,0,-1,0.05888367,-0.05140686,-1.013489,0,0,0,0,0,-1,0.0360845,-0.0352741,0.0245341,2.955603,0.07579678,0.05011507,0.04899814,-0.05056608,0.01782049,-0.005301398,-0.00938466,-0.03879106,192.168.1.4,10.24.231.91,5,stationary,2,2014-09-25 20:24:47.347,0,2014-09-25 20:20:33.625,0
2014-09-25 20:24:48.848,47,0.47,0,0,0,0,0,0,0,-1,0.06852722,-0.04486084,-1.032715,0,0,0,0,0,-1,0.03599955,-0.008571916,0.03812395,2.956509,0.0731017,0.05237475,0.05403539,-0.02393464,0.02779392,-0.01650945,0.001645854,-0.01829003,192.168.1.4,10.24.231.91,5,stationary,2,2014-09-25 20:24:47.347,0,2014-09-25 20:20:33.625,0
2014-09-25 20:24:48.889,48,0.48,0,0,0,0,0,0,0,-1,0.06629944,-0.05168152,-1.008926,0,0,0,0,0,-1,0.03852475,0.005956693,0.04310672,2.957767,0.07197343,0.05394514,0.04009967,-0.0007744754,0.03611579,-0.004393363,0.005197668,-0.02215207,192.168.1.4,10.24.231.91,5,stationary,2,2014-09-25 20:24:47.347,0,2014-09-25 20:20:33.625,0
2014-09-25 20:24:48.911,49,0.49,0,0,0,0,0,0,0,-1,0.07185364,-0.04919434,-1.029968,0,0,0,0,0,-1,0.0411208,0.01803626,0.04312536,2.958519,0.07160927,0.05485684,0.05273842,0.001542657,0.03763089,-0.005949738,0.005665511,-0.02214492,192.168.1.4,10.24.231.91,5,stationary,2,2014-09-25 20:24:47.347,0,2014-09-25 20:20:33.625,0
2014-09-25 20:24:48.933,50,0.5,0,0,0,0,0,0,0,-1,0.0723877,-0.06001282,-1.018906,0,0,0,0,0,-1,0.02470588,0.02301877,0.04274693,2.959261,0.07173362,0.05588966,0.05531225,0.01362885,0.03889239,-0.002224268,0.004285865,-0.03934644,192.168.1.4,10.24.231.91,5,stationary,2,2014-09-25 20:24:47.347,0,2014-09-25 20:20:33.625,0
2014-09-25 20:24:48.957,51,0.51,0,0,0,0,0,0,0,-1,0.07792664,-0.06410217,-1.012695,0,0,0,0,0,-1,0.02857092,0.02053697,0.03786669,2.96003,0.07193836,0.05699116,0.03891844,0.01860387,0.03727111,0.0006280657,-0.003052502,-0.02311145,192.168.1.4,10.24.231.91,5,stationary,2,2014-09-25 20:24:47.347,0,2014-09-25 20:20:33.625,0
2014-09-25 20:24:48.980,52,0.52,0,0,0,0,0,0,0,-1,0.07887268,-0.06193542,-1.027954,0,0,0,0,0,-1,0.04120949,0.02649286,0.04061347,2.960717,0.07234831,0.05809744,0.04282749,0.01612623,0.03243275,0.005763379,-0.006037414,-0.01699408,192.168.1.4,10.24.231.91,5,stationary,2,2014-09-25 20:24:47.347,0,2014-09-25 20:20:33.625,0
2014-09-25 20:24:49.007,53,0.53,0,0,0,0,0,0,0,-1,0.09524536,-0.05584717,-1.019226,0,0,0,0,0,-1,0.03713565,-0.02430028,0.04068618,2.961685,0.07328018,0.05988356,0.05912058,-0.003361005,0.03534163,0.02660229,0.006747192,-0.04042117,192.168.1.4,10.24.231.91,5,stationary,2,2014-09-25 20:24:47.347,0,2014-09-25 20:20:33.625,0
2014-09-25 20:24:49.033,54,0.54,0,0,0,0,0,0,0,-1,0.09327698,-0.05754089,-1.03476,0,0,0,0,0,-1,0.04720693,-0.03285861,0.04093598,2.962318,0.07339859,0.06068977,0.05139067,-0.02870513,0.03525186,0.02204766,0.004805355,-0.02375464,192.168.1.4,10.24.231.91,5,stationary,2,2014-09-25 20:24:47.347,0,2014-09-25 20:20:33.625,0
2014-09-25 20:24:49.054,55,0.55,0,0,0,0,0,0,0,-1,0.09069824,-0.06239319,-1.03183,0,0,0,0,0,-1,0.03442296,-0.0690752,0.03703951,2.962941,0.07318454,0.06184472,0.05773764,-0.03967644,0.03045341,0.02029753,0.004264412,-0.03934297,192.168.1.4,10.24.231.91,5,stationary,2,2014-09-25 20:24:47.347,0,2014-09-25 20:20:33.625,0
2014-09-25 20:24:49.087,56,0.56,0,0,0,0,0,0,0,-1,0.05491638,-0.06936646,-1.032669,0,0,0,0,0,-1,0.04858671,-0.04260818,0.03105059,2.963708,0.0715108,0.06354628,0.05519293,-0.06147011,0.02424994,0.006041152,-0.001727804,-0.03166864,192.168.1.4,10.24.231.91,5,stationary,2,2014-09-25 20:24:47.347,0,2014-09-25 20:20:33.625,0
2014-09-25 20:24:49.112,57,0.57,0,0,0,0,0,0,0,-1,0.09733582,-0.0546875,-1.04187,0,0,0,0,0,-1,0.03202158,-0.09940755,0.01967623,2.964104,0.06996013,0.06482993,0.06284038,-0.04700834,0.02561602,-0.01483985,-0.004581926,-0.03721086,192.168.1.4,10.24.231.91,5,stationary,2,2014-09-25 20:24:47.347,0,2014-09-25 20:20:33.625,0
2014-09-25 20:24:49.135,58,0.58,0,0,0,0,0,0,0,-1,0.0796051,-0.06642151,-1.006165,0,0,0,0,0,-1,0.02199691,-0.08237823,0.01940033,2.964327,0.06862612,0.06576499,0.04627348,-0.1038026,0.01424125,0.02891179,0.01103009,-0.04638061,192.168.1.4,10.24.231.91,5,stationary,2,2014-09-25 20:24:47.347,0,2014-09-25 20:20:33.625,0
2014-09-25 20:24:49.165,59,0.59,0,0,0,0,0,0,0,-1,0.05879211,-0.07066345,-1.020645,0,0,0,0,0,-1,0.008317319,-0.08597483,0.004189152,2.964573,0.06495588,0.06720346,0.03649806,-0.0844095,0.001570406,0.0106605,0.006590754,-0.03104906,192.168.1.4,10.24.231.91,5,unknown,2,2014-09-25 20:24:49.541,0,2014-09-25 20:20:33.625,0
2014-09-25 20:24:49.191,60,0.6,0,0,0,0,0,0,0,-1,0.05950928,-0.07528687,-1.017715,0,0,0,0,0,-1,0.005955361,-0.05933709,0.002808303,2.964519,0.06288682,0.06776258,0.02259439,-0.09035569,-0.001204294,-0.003909033,-0.002952717,-0.02491233,192.168.1.4,10.24.231.91,5,unknown,2,2014-09-25 20:24:49.541,0,2014-09-25 20:20:33.625,0
2014-09-25 20:24:49.214,61,0.61,0,0,0,0,0,0,0,-1,0.05932617,-0.06674194,-1.023697,0,0,0,0,0,-1,0.009661948,-0.07146406,0.004172374,2.964444,0.06106114,0.06836376,0.02023331,-0.0637189,-0.002584969,-0.003095626,-0.003970357,-0.02494714,192.168.1.4,10.24.231.91,5,unknown,2,2014-09-25 20:24:49.541,0,2014-09-25 20:20:33.625,0
2014-09-25 20:24:49.236,62,0.62,0,0,0,0,0,0,0,-1,0.06134033,-0.06518555,-1.023438,0,0,0,0,0,-1,0.002141182,-0.06293476,0.002735599,2.964415,0.05951845,0.06875687,0.02393894,-0.07584564,-0.001220973,0.007780641,0.004997267,-0.03225129,192.168.1.4,10.24.231.91,5,unknown,2,2014-09-25 20:24:49.541,0,2014-09-25 20:20:33.625,0
2014-09-25 20:24:49.258,63,0.63,0,0,0,0,0,0,0,-1,0.04679871,-0.07575989,-1.01741,0,0,0,0,0,-1,-0.007670437,-0.007180947,0.002340386,2.964357,0.05804405,0.06890937,0.00888213,-0.0575701,-0.002855393,-0.004284911,0.003333607,-0.01598577,192.168.1.4,10.24.231.91,5,unknown,2,2014-09-25 20:24:49.541,0,2014-09-25 20:20:33.625,0
2014-09-25 20:24:49.282,64,0.64,0,0,0,0,0,0,0,-1,0.0491333,-0.07354736,-1.008026,0,0,0,0,0,-1,-0.02027118,0.001399225,0.002034655,2.964312,0.05718131,0.06915037,0.006606184,-0.0115645,-0.003052851,-0.01021486,-0.006664618,-0.02143071,192.168.1.4,10.24.231.91,5,unknown,2,2014-09-25 20:24:49.541,0,2014-09-25 20:20:33.625,0
2014-09-25 20:24:49.304,65,0.65,0,0,0,0,0,0,0,-1,0.06813049,-0.07446289,-1.013214,0,0,0,0,0,-1,-0.02408536,-0.00219844,0.001961951,2.964293,0.0568008,0.06926677,-0.005993756,-0.002985965,-0.003358395,-0.007500824,-0.004335965,-0.01203297,192.168.1.4,10.24.231.91,5,unknown,2,2014-09-25 20:24:49.541,0,2014-09-25 20:20:33.625,0
2014-09-25 20:24:49.325,66,0.66,0,0,0,0,0,0,0,-1,0.06257629,-0.07429504,-1.026215,0,0,0,0,0,-1,-0.03294623,0.0003054646,0.003001649,2.964233,0.05694138,0.06933152,-0.00980647,-0.006582228,-0.003431016,0.0113566,-0.005186906,-0.01723341,192.168.1.4,10.24.231.91,5,unknown,2,2014-09-25 20:24:49.541,0,2014-09-25 20:20:33.625,0
2014-09-25 20:24:49.349,67,0.67,0,0,0,0,0,0,0,-1,0.05032349,-0.07043457,-1.018158,0,0,0,0,0,-1,-0.04039376,0.02214631,0.001523861,2.964155,0.05704233,0.06906759,-0.01866705,-0.00407726,-0.002391324,0.005700825,-0.00528235,-0.03022141,192.168.1.4,10.24.231.91,5,unknown,2,2014-09-25 20:24:49.541,0,2014-09-25 20:20:33.625,0
2014-09-25 20:24:49.373,68,0.68,0,0,0,0,0,0,0,-1,0.05386353,-0.07878113,-1.015549,0,0,0,0,0,-1,-0.05297241,0.02708169,-0.001256479,2.96411,0.05722687,0.06838828,-0.03245752,0.01418634,-0.003997556,-0.01006487,-0.005837995,-0.01909221,192.168.1.4,10.24.231.91,5,unknown,2,2014-09-25 20:24:49.541,0,2014-09-25 20:20:33.625,0
2014-09-25 20:24:49.394,69,0.69,0,0,0,0,0,0,0,-1,0.04826355,-0.07691956,-1.023911,0,0,0,0,0,-1,-0.06038238,0.04042279,-0.007679758,2.964075,0.05732618,0.0681334,-0.03869183,0.02269704,-0.006649163,-0.005236198,-0.009647572,-0.01601351,192.168.1.4,10.24.231.91,5,unknown,2,2014-09-25 20:24:49.541,0,2014-09-25 20:20:33.625,0
2014-09-25 20:24:49.415,70,0.7,0,0,0,0,0,0,0,-1,0.05256653,-0.06599426,-1.036789,0,0,0,0,0,-1,-0.05143603,0.05728832,-0.007536213,2.963845,0.0579638,0.0671829,-0.03985676,0.02509717,-0.01165579,-0.009537111,-0.009787183,-0.02784209,192.168.1.4,10.24.231.91,5,unknown,2,2014-09-25 20:24:49.541,0,2014-09-25 20:20:33.625,0
2014-09-25 20:24:49.440,71,0.71,0,0,0,0,0,0,0,-1,0.05000305,-0.06079102,-1.014801,0,0,0,0,0,-1,-0.05890912,0.070651,-0.0102308,2.963624,0.05849838,0.06624074,-0.03715412,0.0528994,-0.01292841,-0.009493412,0.005996379,-0.03879676,192.168.1.4,10.24.231.91,5,unknown,2,2014-09-25 20:24:49.541,0,2014-09-25 20:20:33.625,0
2014-09-25 20:24:49.462,72,0.72,0,0,0,0,0,0,0,-1,0.06246948,-0.06503296,-1.013687,0,0,0,0,0,-1,-0.06270546,0.07795898,-0.007851265,2.963396,0.05949207,0.06502645,-0.0446286,0.06626015,-0.01562293,-0.009328268,0.004189611,-0.01867989,192.168.1.4,10.24.231.91,5,unknown,2,2014-09-25 20:24:49.541,0,2014-09-25 20:20:33.625,0
2014-09-25 20:24:49.483,73,0.73,0,0,0,0,0,0,0,-1,0.07443237,-0.07025146,-1.026779,0,0,0,0,0,-1,-0.06147401,0.07189736,-0.00780466,2.963183,0.06098767,0.06396064,-0.0484253,0.07356784,-0.01324339,0.001644246,-0.001115918,-0.01758729,192.168.1.4,10.24.231.91,5,unknown,2,2014-09-25 20:24:49.541,0,2014-09-25 20:20:33.625,0
2014-09-25 20:24:49.507,74,0.74,0,0,0,0,0,0,0,-1,0.08021545,-0.06689453,-1.024536,0,0,0,0,0,-1,-0.07029413,0.05498868,-0.01540559,2.962935,0.0626624,0.06300022,-0.04974167,0.06026135,-0.01447325,0.0119352,-0.007292908,-0.03072179,192.168.1.4,10.24.231.91,5,unknown,2,2014-09-25 20:24:49.541,0,2014-09-25 20:20:33.625,0
2014-09-25 20:24:49.531,75,0.75,0,0,0,0,0,0,0,-1,0.07115173,-0.06034851,-1.022064,0,0,0,0,0,-1,-0.07537412,0.05503955,-0.01427454,2.96259,0.06435212,0.06202447,-0.05601218,0.05060177,-0.02079781,0.01941884,-0.009640048,-0.03218704,192.168.1.4,10.24.231.91,5,unknown,2,2014-09-25 20:24:49.541,0,2014-09-25 20:20:33.625,0
2014-09-25 20:24:49.568,76,0.76,0,0,0,0,0,0,0,-1,0.07167053,-0.05670166,-1.031097,0,0,0,0,0,-1,-0.06276325,0.05979249,-0.01028113,2.961883,0.06695772,0.05941318,-0.05354667,0.0506039,-0.01701336,0.001646025,0.004858574,-0.03371018,192.168.1.4,10.24.231.91,5,unknown,2,2014-09-25 20:24:49.541,0,2014-09-25 20:20:33.625,0
2014-09-25 20:24:49.615,77,0.77,0,0,0,0,0,0,0,-1,0.08894348,-0.0594635,-1.026001,0,0,0,0,0,-1,-0.07927378,0.03207245,-0.01553049,2.96131,0.06939451,0.05679729,-0.05618399,0.03126499,-0.01700978,0.01237699,-0.001140348,-0.02650694,192.168.1.4,10.24.231.91,5,unknown,2,2014-09-25 20:24:49.541,0,2014-09-25 20:20:33.625,0
2014-09-25 20:24:49.637,78,0.78,0,0,0,0,0,0,0,-1,0.07676697,-0.05525208,-1.030182,0,0,0,0,0,-1,-0.08175904,0.02480468,-0.02053563,2.960953,0.07049108,0.05552276,-0.06499358,0.02769227,-0.02092315,0.0186193,-0.003969265,-0.03002161,192.168.1.4,10.24.231.91,5,unknown,2,2014-09-25 20:24:49.541,0,2014-09-25 20:20:33.625,0
2014-09-25 20:24:49.660,79,0.79,0,0,0,0,0,0,0,-1,0.06640625,-0.05326843,-1.035309,0,0,0,0,0,-1,-0.08399343,0.07079747,-0.02321904,2.960512,0.07131927,0.05392091,-0.06747948,0.02042597,-0.0259284,0.005276009,0.003525518,-0.03557752,192.168.1.4,10.24.231.91,5,unknown,2,2014-09-25 20:24:49.541,0,2014-09-25 20:20:33.625,0
2014-09-25 20:24:49.685,80,0.8,0,0,0,0,0,0,0,-1,0.0788269,-0.0464325,-1.013321,0,0,0,0,0,-1,-0.06671858,0.01138368,-0.01643037,2.960026,0.07220291,0.05231358,-0.06971463,0.06641788,-0.02861179,-0.005635253,-0.000978708,-0.03927882,192.168.1.4,10.24.231.91,5,unknown,2,2014-09-25 20:24:49.541,0,2014-09-25 20:20:33.625,0
2014-09-25 20:24:49.706,81,0.81,0,0,0,0,0,0,0,-1,0.0854187,-0.05067444,-1.050781,0,0,0,0,0,-1,-0.05548669,-0.0007872304,-0.01116983,2.959588,0.07299727,0.05077114,-0.05244087,0.00700401,-0.02182318,0.005988426,0.004316836,-0.01726919,192.168.1.4,10.24.231.91,5,unknown,2,2014-09-25 20:24:49.541,0,2014-09-25 20:20:33.625,0
2014-09-25 20:24:49.728,82,0.82,0,0,0,0,0,0,0,-1,0.07847595,-0.05357361,-1.02832,0,0,0,0,0,-1,-0.06035708,0.02586515,-0.0138495,2.959101,0.07331198,0.04919178,-0.0399307,-0.006392703,-0.01777403,0.01226097,-0.0015025,-0.05467379,192.168.1.4,10.24.231.91,5,unknown,2,2014-09-25 20:24:49.541,0,2014-09-25 20:20:33.625,0
2014-09-25 20:24:49.752,83,0.83,0,0,0,0,0,0,0,-1,0.06433105,-0.04902649,-1.004257,0,0,0,0,0,-1,-0.05012495,0.04271258,-0.01492089,2.958788,0.07326542,0.04829521,-0.0460798,0.02148786,-0.01924242,-0.003946452,-0.002871017,-0.01916539,192.168.1.4,10.24.231.91,5,unknown,2,2014-09-25 20:24:49.541,0,2014-09-25 20:20:33.625,0
2014-09-25 20:24:49.775,84,0.84,0,0,0,0,0,0,0,-1,0.0749054,-0.040802,-1.031693,0,0,0,0,0,-1,-0.03626586,0.05594715,-0.007196927,2.958483,0.07376607,0.04731315,-0.03584747,0.03833348,-0.02031365,-0.009285662,-0.001730989,-0.008092701,192.168.1.4,10.24.231.91,5,unknown,2,2014-09-25 20:24:49.541,0,2014-09-25 20:20:33.625,0
2014-09-25 20:24:49.796,85,0.85,0,0,0,0,0,0,0,-1,0.08071899,-0.04362488,-1.032074,0,0,0,0,0,-1,-0.04002918,0.04627003,-0.01222258,2.958194,0.07474491,0.04662989,-0.02198938,0.05156737,-0.0125897,0.0003112367,0.005810997,-0.03556855,192.168.1.4,10.24.231.91,5,unknown,2,2014-09-25 20:24:49.541,0,2014-09-25 20:20:33.625,0
2014-09-25 20:24:49.817,86,0.86,0,0,0,0,0,0,0,-1,0.08239746,-0.0450592,-1.033112,0,0,0,0,0,-1,-0.01983789,0.03034912,-0.01421249,2.9579,0.07559416,0.04599439,-0.01573665,0.02728852,-0.01610407,0.00527668,0.002353295,-0.03598439,192.168.1.4,10.24.231.91,5,unknown,2,2014-09-25 20:24:49.541,0,2014-09-25 20:20:33.625,0
2014-09-25 20:24:49.841,87,0.87,0,0,0,0,0,0,0,-1,0.07232666,-0.04942322,-1.013718,0,0,0,0,0,-1,-0.01859952,0.04853345,-0.006783071,2.957478,0.07636108,0.04570419,-0.009289389,0.03446681,-0.02095827,0.006190238,0.0006290769,-0.03706687,192.168.1.4,10.24.231.91,5,unknown,2,2014-09-25 20:24:49.541,0,2014-09-25 20:20:33.625,0
2014-09-25 20:24:49.863,88,0.88,0,0,0,0,0,0,0,-1,0.07307434,-0.05303955,-1.031357,0,0,0,0,0,-1,-0.005930061,0.04477946,-0.008978048,2.95717,0.07710011,0.04564933,-0.004323972,0.04415325,-0.01217582,-0.007134551,-0.007604439,-0.01266113,192.168.1.4,10.24.231.91,5,unknown,2,2014-09-25 20:24:49.541,0,2014-09-25 20:20:33.625,0
2014-09-25 20:24:49.884,89,0.89,0,0,0,0,0,0,0,-1,0.07788086,-0.04826355,-1.04216,0,0,0,0,0,-1,-0.004677842,0.01567483,-0.01756088,2.956869,0.0778579,0.04588676,0.00834651,0.04039806,-0.01437062,-0.004623052,-0.007168894,-0.03543563,192.168.1.4,10.24.231.91,5,unknown,2,2014-09-25 20:24:49.541,0,2014-09-25 20:20:33.625,0
2014-09-25 20:24:49.908,90,0.9,0,0,0,0,0,0,0,-1,0.0783844,-0.05047607,-1.030472,0,0,0,0,0,-1,-0.005944975,-7.483482E-005,-0.02251197,2.95616,0.0782957,0.04608737,0.0122201,0.00881411,-0.02910444,-0.003227281,-0.002314562,-0.04220806,192.168.1.4,10.24.231.91,5,unknown,2,2014-09-25 20:24:49.541,0,2014-09-25 20:20:33.625,0
2014-09-25 20:24:49.934,91,0.91,0,0,0,0,0,0,0,-1,0.08018494,-0.04891968,-1.032288,0,0,0,0,0,-1,-0.0123552,-0.01575207,-0.02260331,2.955519,0.07809114,0.04631238,0.007162979,-0.009285148,-0.03034697,0.0004562536,-0.004180246,-0.03458833,192.168.1.4,10.24.231.91,5,unknown,2,2014-09-25 20:24:49.541,0,2014-09-25 20:20:33.625,0
2014-09-25 20:24:49.955,92,0.92,0,0,0,0,0,0,0,-1,0.08503723,-0.04573059,-1.031204,0,0,0,0,0,-1,-0.009880061,-0.02181741,-0.02128585,2.95484,0.07782516,0.0463855,0.002002281,-0.02011831,-0.02793942,0.002521943,-0.002550809,-0.03638681,192.168.1.4,10.24.231.91,5,unknown,2,2014-09-25 20:24:49.541,0,2014-09-25 20:20:33.625,0
2014-09-25 20:24:49.977,93,0.93,0,0,0,0,0,0,0,-1,0.08781433,-0.04353333,-1.031296,0,0,0,0,0,-1,-0.002439189,-0.04486841,-0.01980433,2.954242,0.07746058,0.04637065,0.001942227,-0.03100846,-0.02790591,0.009293666,0.0008218038,-0.03181075,192.168.1.4,10.24.231.91,5,unknown,2,2014-09-25 20:24:49.541,0,2014-09-25 20:20:33.625,0
2014-09-25 20:24:50.001,94,0.94,0,0,0,0,0,0,0,-1,0.08662415,-0.03918457,-1.029724,0,0,0,0,0,-1,4.580637E-005,-0.06063645,-0.02218573,2.95366,0.07683533,0.04633477,0.0119175,-0.04923221,-0.02514058,0.01113697,0.002784865,-0.03531625,192.168.1.4,10.24.231.91,5,unknown,2,2014-09-25 20:24:49.541,0,2014-09-25 20:20:33.625,0
2014-09-25 20:24:50.022,95,0.95,0,0,0,0,0,0,0,-1,0.07913208,-0.03703308,-1.023621,0,0,0,0,0,-1,-0.0013164,-0.06301705,-0.01723465,2.953009,0.0757308,0.04631443,0.01440103,-0.06499884,-0.02752214,0.01104685,0.007113306,-0.03365958,192.168.1.4,10.24.231.91,5,unknown,2,2014-09-25 20:24:49.541,0,2014-09-25 20:20:33.625,0
2014-09-25 20:24:50.045,96,0.96,0,0,0,0,0,0,0,-1,0.07678223,-0.04443359,-1.023987,0,0,0,0,0,-1,0.02897786,-0.02809875,-0.001756887,2.952485,0.07447451,0.04639336,0.0218893,-0.06381751,-0.02114376,0.004806449,0.00934364,-0.02746555,192.168.1.4,10.24.231.91,5,unknown,2,2014-09-25 20:24:49.541,0,2014-09-25 20:20:33.625,0
2014-09-25 20:24:50.072,97,0.97,0,0,0,0,0,0,0,-1,0.08213806,-0.0479126,-1.022552,0,0,0,0,0,-1,0.0427717,-0.007567372,0.01215919,2.952057,0.07330412,0.04738871,0.04712776,-0.02036956,-0.003318261,0.003625965,0.002937383,-0.02779198,192.168.1.4,10.24.231.91,5,unknown,2,2014-09-25 20:24:49.541,0,2014-09-25 20:20:33.625,0
2014-09-25 20:24:50.094,98,0.98,0,0,0,0,0,0,0,-1,0.07774353,-0.04925537,-1.014755,0,0,0,0,0,-1,0.05040778,-0.002799515,0.01106916,2.95201,0.07306291,0.04847332,0.05713907,-0.01187028,0.006830916,0.003625907,-0.002036998,-0.02158535,192.168.1.4,10.24.231.91,5,unknown,2,2014-09-25 20:24:49.541,0,2014-09-25 20:20:33.625,0
2014-09-25 20:24:50.115,99,0.9899999,0,0,0,0,0,0,0,-1,0.0774231,-0.05108643,-1.016113,0,0,0,0,0,-1,0.04539092,-0.00277022,0.008471515,2.952026,0.07305399,0.04913168,0.06227331,-0.005877327,0.004438326,0.00484258,-0.0001434528,-0.018626,192.168.1.4,10.24.231.91,5,unknown,2,2014-09-25 20:24:49.541,0,2014-09-25 20:20:33.625,0
2014-09-25 20:24:50.136,100,1,0,0,0,0,0,0,0,-1,0.07125854,-0.0514679,-1.02681,0,0,0,0,0,-1,0.039198,0.005726595,0.003334011,2.952015,0.07300033,0.05112768,0.06232069,-0.0010433,0.003180497,0.001866829,0.0009192499,-0.02291801,192.168.1.4,10.24.231.91,5,unknown,2,2014-09-25 20:24:49.541,0,2014-09-25 20:20:33.625,0
2014-09-25 20:24:50.159,101,1.01,0,0,0,0,0,0,0,-1,0.07289124,-0.04884338,-1.020401,0,0,0,0,0,-1,0.02147626,0.0107344,0.005413407,2.951892,0.07296635,0.05219418,0.04977811,-0.0009703626,-0.003313616,-0.001543801,0.0007025917,-0.03082874,192.168.1.4,10.24.231.91,5,unknown,2,2014-09-25 20:24:49.541,0,2014-09-25 20:20:33.625,0
2014-09-25 20:24:50.182,102,1.02,0,0,0,0,0,0,0,-1,0.07987976,-0.05136108,-1.022949,0,0,0,0,0,-1,0.002382198,2.849582E-005,0.008756207,2.951818,0.07301226,0.05288815,0.03584195,0.006431691,8.508162E-005,4.582449E-005,0.004020115,-0.02445974,192.168.1.4,10.24.231.91,5,unknown,2,2014-09-25 20:24:49.541,0,2014-09-25 20:20:33.625,0
2014-09-25 20:24:50.203,103,1.03,0,0,0,0,0,0,0,-1,0.07876587,-0.05430603,-1.035431,0,0,0,0,0,-1,-0.005252819,-0.008376973,0.008614527,2.951778,0.07302764,0.05320763,0.01674666,-0.004273597,0.003427786,0.004365237,0.00464432,-0.03215292,192.168.1.4,10.24.231.91,5,unknown,2,2014-09-25 20:24:49.541,0,2014-09-25 20:20:33.625,0
2014-09-25 20:24:50.227,104,1.04,0,0,0,0,0,0,0,-1,0.08049011,-0.05271912,-1.029938,0,0,0,0,0,-1,-0.01660454,-0.01798859,0.003421097,2.951833,0.0729371,0.05347509,0.009111458,-0.0126787,0.003286103,0.005997591,-0.000856424,-0.03951529,192.168.1.4,10.24.231.91,5,unknown,2,2014-09-25 20:24:49.541,0,2014-09-25 20:20:33.625,0
2014-09-25 20:24:50.249,105,1.05,0,0,0,0,0,0,0,-1,0.07821655,-0.05479431,-1.027786,0,0,0,0,0,-1,-0.007592938,-0.00841985,-0.002627475,2.951767,0.07269049,0.05347087,-0.002240864,-0.02228952,-0.001907384,0.007967419,0.0007262785,-0.03400399,192.168.1.4,10.24.231.91,5,unknown,2,2014-09-25 20:24:49.541,0,2014-09-25 20:20:33.625,0
2014-09-25 20:24:50.273,106,1.06,0,0,0,0,0,0,0,-1,0.07463074,-0.05648804,-1.026031,0,0,0,0,0,-1,-0.0101557,-0.01444871,-0.002664759,2.951643,0.07244856,0.05355232,0.006787523,-0.01266193,-0.00795626,0.005935128,-0.001267582,-0.03183933,192.168.1.4,10.24.231.91,5,unknown,2,2014-09-25 20:24:49.541,0,2014-09-25 20:20:33.625,0
2014-09-25 20:24:50.294,107,1.07,0,0,0,0,0,0,0,-1,0.06925964,-0.05819702,-1.026093,0,0,0,0,0,-1,-0.0151968,-0.003499394,-0.000324373,2.951449,0.07190044,0.05364358,-0.0008228206,-0.008951914,-0.005649351,-0.003894591,-0.002442932,-0.0314843,192.168.1.4,10.24.231.91,5,unknown,2,2014-09-25 20:24:49.541,0,2014-09-25 20:20:33.625,0
2014-09-25 20:24:50.320,108,1.08,0,0,0,0,0,0,0,-1,0.06542969,-0.0589447,-1.027695,0,0,0,0,0,-1,-0.02025574,-0.003455718,-0.0004362258,2.951313,0.07151922,0.05366927,-0.0008160114,-0.007742894,-0.005652987,-0.006536041,-0.001227099,-0.03034451,192.168.1.4,10.24.231.91,5,unknown,2,2014-09-25 20:24:49.541,0,2014-09-25 20:20:33.625,0
2014-09-25 20:24:50.341,109,1.09,0,0,0,0,0,0,0,-1,0.07019043,-0.05493164,-1.030991,0,0,0,0,0,-1,-0.02913658,-0.004582235,0.0006146576,2.951296,0.07133065,0.05365396,-0.005924473,-0.005258048,-0.002043537,-0.005737928,-0.005316484,-0.03167302,192.168.1.4,10.24.231.91,5,unknown,2,2014-09-25 20:24:49.541,0,2014-09-25 20:20:33.625,0
2014-09-25 20:24:50.373,110,1.1,0,0,0,0,0,0,0,-1,0.07371521,-0.05644226,-1.031494,0,0,0,0,0,-1,-0.02541002,-0.01307878,0.001967544,2.951126,0.0707222,0.05308523,-0.01218934,-0.01371119,-0.008371635,0.004646855,-0.003336186,-0.02824271,192.168.1.4,10.24.231.91,5,unknown,2,2014-09-25 20:24:49.541,0,2014-09-25 20:20:33.625,0
2014-09-25 20:24:50.398,111,1.11,0,0,0,0,0,0,0,-1,0.07327271,-0.0521698,-1.024307,0,0,0,0,0,-1,-0.01017115,-0.009593772,-0.0001938781,2.951049,0.07047189,0.05287498,-0.01102854,-0.01732361,-0.003360861,0.003400044,-0.003591916,-0.03537034,192.168.1.4,10.24.231.91,5,unknown,2,2014-09-25 20:24:49.541,0,2014-09-25 20:20:33.625,0
2014-09-25 20:24:50.421,112,1.12,0,0,0,0,0,0,0,-1,0.07368469,-0.04992676,-1.02301,0,0,0,0,0,-1,-0.005176386,-0.005978264,0.004878378,2.950927,0.07024644,0.05270334,0.004209557,-0.01383814,-0.005522331,0.003181487,0.000509141,-0.02815859,192.168.1.4,10.24.231.91,5,unknown,2,2014-09-25 20:24:49.541,0,2014-09-25 20:20:33.625,0
2014-09-25 20:24:50.442,113,1.13,0,0,0,0,0,0,0,-1,0.07182312,-0.05526733,-1.022263,0,0,0,0,0,-1,-0.008833173,0.003706854,-0.0002069276,2.950872,0.07003486,0.05264301,0.009243692,-0.01020367,-0.0004469067,0.003804012,0.002691941,-0.02684362,192.168.1.4,10.24.231.91,5,unknown,2,2014-09-25 20:24:49.541,0,2014-09-25 20:20:33.625,0
2014-09-25 20:24:50.467,114,1.14,0,0,0,0,0,0,0,-1,0.07354736,-0.05480957,-1.023422,0,0,0,0,0,-1,-0.008896289,0.003728426,0.003521764,2.950784,0.06994744,0.05274085,0.005586725,-0.0005184089,-0.005532205,0.002029889,-0.002550927,-0.02609497,192.168.1.4,10.24.231.91,5,unknown,2,2014-09-25 20:24:49.541,0,2014-09-25 20:20:33.625,0
2014-09-25 20:24:50.489,115,1.15,0,0,0,0,0,0,0,-1,0.07305908,-0.05451965,-1.024918,0,0,0,0,0,-1,-0.01897875,0.002591256,0.0008159925,2.950707,0.06999779,0.05286904,0.003028448,0.001938277,-0.003109784,0.003704442,-0.001965151,-0.02726491,192.168.1.4,10.24.231.91,5,unknown,2,2014-09-25 20:24:49.541,0,2014-09-25 20:20:33.625,0
2014-09-25 20:24:50.510,116,1.16,0,0,0,0,0,0,0,-1,0.07299805,-0.05485535,-1.027054,0,0,0,0,0,-1,-0.01519893,0.00377583,0.002139051,2.950642,0.07002714,0.05282993,-0.004558682,-0.001633681,-0.004509235,0.001920302,-0.002431459,-0.02757007,192.168.1.4,10.24.231.91,5,unknown,2,2014-09-25 20:24:49.541,0,2014-09-25 20:20:33.625,0
2014-09-25 20:24:50.531,117,1.17,0,0,0,0,0,0,0,-1,0.07162476,-0.05323792,-1.027832,0,0,0,0,0,-1,-0.02031326,0.001413606,0.00452045,2.950562,0.07006704,0.05277871,-0.0007788701,-0.0004489426,-0.003186149,0.003085812,-0.002101133,-0.03089658,192.168.1.4,10.24.231.91,5,unknown,2,2014-09-25 20:24:49.541,0,2014-09-25 20:20:33.625,0
2014-09-25 20:24:50.554,118,1.18,0,0,0,0,0,0,0,-1,0.07202148,-0.05110168,-1.028198,0,0,0,0,0,-1,-0.01011895,0.003724963,0.001008007,2.95054,0.07003685,0.05262002,-0.005893474,-0.002811094,-0.0008047469,0.001742007,-0.0006421736,-0.03166433,192.168.1.4,10.24.231.91,5,unknown,2,2014-09-25 20:24:49.541,0,2014-09-25 20:20:33.625,0
2014-09-25 20:24:50.577,119,1.19,0,0,0,0,0,0,0,-1,0.07199097,-0.05354309,-1.027313,0,0,0,0,0,-1,-0.00385173,0.004902081,0.004872786,2.950476,0.06997855,0.05259365,0.004300334,-0.00049975,-0.004317202,0.00219672,0.001467725,-0.03202508,192.168.1.4,10.24.231.91,5,unknown,2,2014-09-25 20:24:49.541,0,2014-09-25 20:20:33.625,0
2014-09-25 20:24:50.607,120,1.2,0,0,0,0,0,0,0,-1,0.07260132,-0.05545044,-1.02829,0,0,0,0,0,-1,-0.01147902,-0.00593086,0.003495665,2.950422,0.06981396,0.05306101,0.01187788,-0.001724756,-0.0004027623,0.002591279,-0.001498795,-0.03126002,192.168.1.4,10.24.231.91,5,unknown,2,2014-09-25 20:24:49.541,0,2014-09-25 20:20:33.625,0
2014-09-25 20:24:50.635,121,1.21,0,0,0,0,0,0,0,-1,0.07191467,-0.05795288,-1.027466,0,0,0,0,0,-1,-0.01523994,0.0001525991,0.003393134,2.950406,0.06976686,0.05329031,0.002999183,-0.010126,-0.001815288,0.005049935,-0.00445891,-0.03059752,192.168.1.4,10.24.231.91,5,unknown,2,2014-09-25 20:24:49.541,0,2014-09-25 20:20:33.625,0
2014-09-25 20:24:50.656,122,1.22,0,0,0,0,0,0,0,-1,0.07530212,-0.05657959,-1.029449,0,0,0,0,0,-1,-0.0190187,-0.004669587,0.0008383631,2.950345,0.06969748,0.05346174,-0.000761417,-0.004042334,-0.001917776,0.002373112,-0.004516608,-0.03131898,192.168.1.4,10.24.231.91,5,unknown,2,2014-09-25 20:24:49.541,0,2014-09-25 20:20:33.625,0
2014-09-25 20:24:50.688,123,1.23,0,0,0,0,0,0,0,-1,0.07269287,-0.0552063,-1.028137,0,0,0,0,0,-1,-0.02024588,-0.01315841,-0.00413509,2.950191,0.06953806,0.05340206,-0.007027375,-0.008856566,-0.007014239,0.004439047,-0.0010209,-0.02962626,192.168.1.4,10.24.231.91,5,unknown,2,2014-09-25 20:24:49.541,0,2014-09-25 20:20:33.625,0
2014-09-25 20:24:50.729,124,1.24,0,0,0,0,0,0,0,-1,0.07098389,-0.0559082,-1.026871,0,0,0,0,0,-1,-0.01781601,-0.008296546,0.003363306,2.949944,0.06896726,0.05316607,-0.005795837,-0.01491762,-0.006967597,0.004671099,-0.00273666,-0.03102386,192.168.1.4,10.24.231.91,5,unknown,2,2014-09-25 20:24:49.541,0,2014-09-25 20:20:33.625,0
2014-09-25 20:24:50.768,125,1.25,0,0,0,0,0,0,0,-1,0.06669617,-0.05291748,-1.023636,0,0,0,0,0,-1,-0.007610515,0.003710316,0.00230683,2.949835,0.06841673,0.05321083,0.01438238,-0.01022356,-0.001563434,-0.002806406,-0.0003268524,-0.02900486,192.168.1.4,10.24.231.91,5,unknown,2,2014-09-25 20:24:49.541,0,2014-09-25 20:20:33.625,0
2014-09-25 20:24:50.814,126,1.26,0,0,0,0,0,0,0,-1,0.06752014,-0.05636597,-1.024902,0,0,0,0,0,-1,-0.008877381,0.01099646,0.004742291,2.949741,0.06814187,0.05342123,0.005634161,0.001988526,-0.0005242752,-0.002486033,0.002019483,-0.02895154,192.168.1.4,10.24.231.91,5,unknown,2,2014-09-25 20:24:49.541,0,2014-09-25 20:20:33.625,0
2014-09-25 20:24:50.835,127,1.27,0,0,0,0,0,0,0,-1,0.06684875,-0.05593872,-1.027115,0,0,0,0,0,-1,-0.01524207,0.007427823,0.005856558,2.949691,0.06824027,0.05350788,0.005660553,0.006828757,-0.000539163,0.001551381,-0.001434037,-0.03114486,192.168.1.4,10.24.231.91,5,unknown,2,2014-09-25 20:24:49.541,0,2014-09-25 20:20:33.625,0
2014-09-25 20:24:50.856,128,1.28,0,0,0,0,0,0,0,-1,0.07165527,-0.05709839,-1.027466,0,0,0,0,0,-1,-0.00764487,0.001297226,0.003557184,2.949651,0.06830867,0.05370143,0.0006519707,0.004430156,-0.00437214,0.005237606,-0.00511649,-0.03115987,192.168.1.4,10.24.231.91,5,unknown,2,2014-09-25 20:24:49.541,0,2014-09-25 20:20:33.625,0
2014-09-25 20:24:50.881,129,1.29,0,0,0,0,0,0,0,-1,0.07598877,-0.05383301,-1.028,0,0,0,0,0,-1,-0.0215282,-0.001017328,0.0007712514,2.949554,0.06841358,0.05380922,0.006893702,-0.002870353,-0.001724152,0.007071357,-0.001697702,-0.0329886,192.168.1.4,10.24.231.91,5,unknown,2,2014-09-25 20:24:49.541,0,2014-09-25 20:20:33.625,0
2014-09-25 20:24:50.904,130,1.3,0,0,0,0,0,0,0,-1,0.07252502,-0.05430603,-1.025497,0,0,0,0,0,-1,-0.02412078,-0.000973918,0.004444017,2.949489,0.06849053,0.05365206,-0.006990068,-0.005184006,-0.004510134,0.007650257,-0.0002066829,-0.03177999,192.168.1.4,10.24.231.91,5,unknown,2,2014-09-25 20:24:49.541,0,2014-09-25 20:20:33.625,0
2014-09-25 20:24:50.925,131,1.31,0,0,0,0,0,0,0,-1,0.06808472,-0.05612183,-1.031769,0,0,0,0,0,-1,-0.02538552,-0.0009629991,0.004416054,2.949472,0.06847695,0.05344686,-0.009582837,-0.005140011,-0.0008373905,0.004199285,-0.0008846119,-0.02926566,192.168.1.4,10.24.231.91,5,unknown,2,2014-09-25 20:24:49.541,0,2014-09-25 20:20:33.625,0
2014-09-25 20:24:50.949,132,1.32,0,0,0,0,0,0,0,-1,0.0697937,-0.05958557,-1.020142,0,0,0,0,0,-1,-0.01774171,0.001377387,0.002090581,2.949451,0.06831509,0.05326442,-0.01084746,-0.005129331,-0.0008653049,-8.043724E-005,-0.002882588,-0.03551627,192.168.1.4,10.24.231.91,5,unknown,2,2014-09-25 20:24:49.541,0,2014-09-25 20:20:33.625,0
2014-09-25 20:24:50.971,133,1.33,0,0,0,0,0,0,0,-1,0.06777954,-0.06123352,-1.025696,0,0,0,0,0,-1,-0.01642931,0.006199839,0.0008607337,2.949414,0.06821286,0.0532861,-0.00315466,-0.00277217,-0.003063402,0.001730471,-0.006324687,-0.02388326,192.168.1.4,10.24.231.91,5,unknown,2,2014-09-25 20:24:49.541,0,2014-09-25 20:20:33.625,0
2014-09-25 20:24:50.992,134,1.34,0,0,0,0,0,0,0,-1,0.06790161,-0.06109619,-1.01976,0,0,0,0,0,-1,-0.01529853,0.008659534,0.009581521,2.949355,0.06824765,0.05341924,-0.005678602,0.005734803,-0.0006595172,-0.0003178703,-0.007839679,-0.02944692,192.168.1.4,10.24.231.91,5,unknown,2,2014-09-25 20:24:49.541,0,2014-09-25 20:20:33.625,0
2014-09-25 20:24:51.013,135,1.35,0,0,0,0,0,0,0,-1,0.06869507,-0.05609131,-1.025391,0,0,0,0,0,-1,-0.01517336,0.012254,0.003355849,2.949405,0.06836855,0.05364489,-0.003148703,0.009350126,0.000628292,0.001271502,-0.006836162,-0.02618656,192.168.1.4,10.24.231.91,5,unknown,2,2014-09-25 20:24:49.541,0,2014-09-25 20:20:33.625,0
2014-09-25 20:24:51.040,136,1.36,0,0,0,0,0,0,0,-1,0.06974792,-0.05101013,-1.027756,0,0,0,0,0,-1,-0.01513128,0.01223962,0.0008700547,2.949376,0.06841133,0.05366129,-0.0005836368,0.008103524,-0.001797807,-0.001014101,-0.004012162,-0.02919634,192.168.1.4,10.24.231.91,5,stationary,1,2014-09-25 20:24:51.420,0,2014-09-25 20:20:33.625,0
2014-09-25 20:24:51.061,137,1.37,0,0,0,0,0,0,0,-1,0.06874084,-0.05111694,-1.028473,0,0,0,0,0,-1,-0.01262179,0.008587363,0.0009371664,2.949383,0.06852621,0.05363929,-0.0005415618,0.008088836,-0.004283556,-0.0002741319,-0.001440138,-0.02969129,192.168.1.4,10.24.231.91,5,stationary,1,2014-09-25 20:24:51.420,0,2014-09-25 20:20:33.625,0
2014-09-25 20:24:51.081,138,1.38,0,0,0,0,0,0,0,-1,0.0700531,-0.04968262,-1.027328,0,0,0,0,0,-1,-0.01518455,0.002558499,0.0008998821,2.949265,0.06859437,0.05334258,-0.003120259,0.003276848,-0.003081709,0.001640521,0.003710967,-0.03103816,192.168.1.4,10.24.231.91,5,stationary,1,2014-09-25 20:24:51.420,0,2014-09-25 20:20:33.625,0
2014-09-25 20:24:51.114,139,1.39,0,0,0,0,0,0,0,-1,0.07170105,-0.05311584,-1.03096,0,0,0,0,0,-1,-0.01394085,0.00255477,0.002170742,2.949201,0.06855816,0.05320021,-0.0005971708,-0.001592788,-0.004253792,0.001828658,0.001508855,-0.03002104,192.168.1.4,10.24.231.91,5,stationary,1,2014-09-25 20:24:51.420,0,2014-09-25 20:20:33.625,0
2014-09-25 20:24:51.135,140,1.4,0,0,0,0,0,0,0,-1,0.06997681,-0.05238342,-1.022797,0,0,0,0,0,-1,-0.01278903,0.005007275,0.009648632,2.949124,0.06856808,0.05308103,0.0006849067,-0.001573939,-0.0028597,0.003283183,-0.000059741,-0.03471511,192.168.1.4,10.24.231.91,5,stationary,1,2014-09-25 20:24:51.420,0,2014-09-25 20:20:33.625,0
2014-09-25 20:24:51.156,141,1.41,0,0,0,0,0,0,0,-1,0.06922913,-0.05360413,-1.023941,0,0,0,0,0,-1,-0.01023186,0.006188388,0.008457934,2.949136,0.06854054,0.0530494,0.001836524,0.000878618,0.0046182,0.002257651,-0.00270058,-0.02868433,192.168.1.4,10.24.231.91,5,stationary,1,2014-09-25 20:24:51.420,0,2014-09-25 20:20:33.625,0
2014-09-25 20:24:51.177,142,1.42,0,0,0,0,0,0,0,-1,0.06832886,-0.05183411,-1.024765,0,0,0,0,0,-1,-0.01269822,0.006188654,0.004673315,2.949206,0.06849487,0.05311871,0.008229262,0.002012216,0.001025613,-0.0005194778,0.0008781601,-0.02499225,192.168.1.4,10.24.231.91,5,stationary,1,2014-09-25 20:24:51.420,0,2014-09-25 20:20:33.625,0
2014-09-25 20:24:51.202,143,1.43,0,0,0,0,0,0,0,-1,0.06829834,-0.05345154,-1.021652,0,0,0,0,0,-1,-0.01148328,0.008619587,0.008422513,2.94922,0.06849942,0.05317772,0.001926099,0.002059395,-0.0003570991,0.001093633,0.001089672,-0.02900875,192.168.1.4,10.24.231.91,5,stationary,1,2014-09-25 20:24:51.420,0,2014-09-25 20:20:33.625,0
2014-09-25 20:24:51.224,144,1.44,0,0,0,0,0,0,0,-1,0.06768799,-0.05648804,-1.026474,0,0,0,0,0,-1,-0.01266493,0.01223936,0.004654673,2.949269,0.06854118,0.05327801,0.003140979,0.004490134,0.003392132,0.001204996,-0.002624881,-0.0273995,192.168.1.4,10.24.231.91,5,stationary,1,2014-09-25 20:24:51.420,0,2014-09-25 20:20:33.625,0
2014-09-25 20:24:51.244,145,1.45,0,0,0,0,0,0,0,-1,0.06912231,-0.05584717,-1.025925,0,0,0,0,0,-1,-0.02031539,0.008688829,0.006983873,2.949275,0.06859555,0.05335632,0.0006814712,0.00570018,-0.0003961634,-0.0007562386,-0.003157034,-0.03024551,192.168.1.4,10.24.231.91,5,stationary,1,2014-09-25 20:24:51.420,0,2014-09-25 20:20:33.625,0
2014-09-25 20:24:51.268,146,1.46,0,0,0,0,0,0,0,-1,0.07275391,-0.05653381,-1.026901,0,0,0,0,0,-1,-0.01771508,0.006217949,0.002075668,2.949252,0.06864914,0.05334321,-0.005690813,0.00455868,0.001953596,0.0006246475,-0.002529253,-0.02969917,192.168.1.4,10.24.231.91,5,stationary,1,2014-09-25 20:24:51.420,0,2014-09-25 20:20:33.625,0
2014-09-25 20:24:51.290,147,1.47,0,0,0,0,0,0,0,-1,0.07286072,-0.05854797,-1.027664,0,0,0,0,0,-1,-0.01777154,0.00744966,0.005800631,2.949265,0.06872444,0.05332091,-0.003090371,0.002087991,-0.002954577,0.001205685,-0.002887214,-0.02961159,192.168.1.4,10.24.231.91,5,stationary,1,2014-09-25 20:24:51.420,0,2014-09-25 20:20:33.625,0
2014-09-25 20:24:51.323,148,1.48,0,0,0,0,0,0,0,-1,0.07246399,-0.05648804,-1.025436,0,0,0,0,0,-1,-0.01394085,0.00255477,0.002170742,2.949308,0.06880986,0.05340539,-0.00438238,-0.001487522,-0.0003565393,0.003180836,-0.004237185,-0.03007971,192.168.1.4,10.24.231.91,5,stationary,1,2014-09-25 20:24:51.420,0,2014-09-25 20:20:33.625,0
2014-09-25 20:24:51.347,149,1.49,0,0,0,0,0,0,0,-1,0.06932068,-0.05609131,-1.028778,0,0,0,0,0,-1,-0.01648363,0.0001563276,0.002122273,2.949306,0.06882931,0.0534414,0.000718818,-0.001545217,-0.002730468,0.0037872,-0.003072073,-0.02922847,192.168.1.4,10.24.231.91,5,stationary,1,2014-09-25 20:24:51.420,0,2014-09-25 20:20:33.625,0
2014-09-25 20:24:51.371,150,1.5,0,0,0,0,0,0,0,-1,0.070755,-0.05455017,-1.023224,0,0,0,0,0,-1,-0.007699199,-0.004746286,0.004818724,2.949244,0.0687388,0.05344041,-0.001823728,-0.003943691,-0.002778893,0.0005051637,-0.004125911,-0.03077861,192.168.1.4,10.24.231.91,5,stationary,1,2014-09-25 20:24:51.420,0,2014-09-25 20:20:33.625,0
2014-09-25 20:24:51.408,151,1.51,0,0,0,0,0,0,0,-1,0.06643677,-0.05154419,-1.025085,0,0,0,0,0,-1,-0.01142683,0.007387875,0.00469755,2.949274,0.06846153,0.05360018,0.005700064,-0.0003504095,0.002349341,-0.001247438,0.0005197078,-0.02774691,192.168.1.4,10.24.231.91,5,stationary,1,2014-09-25 20:24:51.420,0,2014-09-25 20:20:33.625,0
2014-09-25 20:24:51.456,152,1.52,0,0,0,0,0,0,0,-1,0.06898499,-0.05636597,-1.026123,0,0,0,0,0,-1,-0.01017647,0.008594288,0.005964682,2.949259,0.06829633,0.05348679,-0.009449448,0.0009822295,0.0007672542,-0.002136131,-0.003240372,-0.02690561,192.168.1.4,10.24.231.91,5,stationary,1,2014-09-25 20:24:51.420,0,2014-09-25 20:20:33.625,0
2014-09-25 20:24:51.476,153,1.53,0,0,0,0,0,0,0,-1,0.07034302,-0.05218506,-1.024948,0,0,0,0,0,-1,-0.01392194,0.009822804,0.003391269,2.94926,0.06834146,0.05347751,0.004509422,0.004526805,0.001185185,0.0007943378,-0.002913941,-0.02988366,192.168.1.4,10.24.231.91,5,stationary,1,2014-09-25 20:24:51.420,0,2014-09-25 20:20:33.625,0
2014-09-25 20:24:51.499,154,1.54,0,0,0,0,0,0,0,-1,0.06915283,-0.05397034,-1.025253,0,0,0,0,0,-1,-0.0164847,0.003793939,0.003353985,2.949249,0.06844798,0.05345261,0.0007637123,0.005755348,-0.001388219,0.002046154,0.001242102,-0.02871468,192.168.1.4,10.24.231.91,5,stationary,1,2014-09-25 20:24:51.420,0,2014-09-25 20:20:33.625,0
2014-09-25 20:24:51.523,155,1.55,0,0,0,0,0,0,0,-1,0.06900024,-0.05155945,-1.023712,0,0,0,0,0,-1,-0.01650787,0.01107635,0.007060306,2.949235,0.06867212,0.0534154,-0.001799516,-0.0002733093,-0.001425513,0.0006325422,-0.0005803337,-0.0290332,192.168.1.4,10.24.231.91,5,stationary,1,2014-09-25 20:24:51.420,0,2014-09-25 20:20:33.625,0
2014-09-25 20:24:51.545,156,1.56,0,0,0,0,0,0,0,-1,0.07324219,-0.05485535,-1.031509,0,0,0,0,0,-1,-0.02282276,0.005065865,0.004453338,2.949305,0.06877024,0.05329852,-0.00182348,0.007009073,0.002280783,0.0003817697,0.001713839,-0.02749257,192.168.1.4,10.24.231.91,5,stationary,1,2014-09-25 20:24:51.420,0,2014-09-25 20:20:33.625,0
2014-09-25 20:24:51.564,157,1.57,0,0,0,0,0,0,0,-1,0.0736084,-0.05403137,-1.030746,0,0,0,0,0,-1,-0.01779045,0.0001816276,0.004580104,2.94925,0.06887813,0.0531712,-0.003050767,-0.001479435,-0.002692661,0.003813867,-0.003296111,-0.02682184,192.168.1.4,10.24.231.91,5,stationary,1,2014-09-25 20:24:51.420,0,2014-09-25 20:20:33.625,0
2014-09-25 20:24:51.589,158,1.58,0,0,0,0,0,0,0,-1,0.07023621,-0.05511475,-1.025467,0,0,0,0,0,-1,-0.01904187,0.002612827,0.004544684,2.949223,0.06885568,0.05307649,-0.003106182,-0.00388517,-0.0001993946,0.004904002,-0.0009797992,-0.03452097,192.168.1.4,10.24.231.91,5,stationary,1,2014-09-25 20:24:51.420,0,2014-09-25 20:20:33.625,0
2014-09-25 20:24:51.612,159,1.59,0,0,0,0,0,0,0,-1,0.0710907,-0.0562439,-1.026138,0,0,0,0,0,-1,-0.01519999,0.007413441,0.003370763,2.949223,0.06878942,0.05306276,-0.004357467,-0.001453996,-0.000234772,0.001536742,-0.002183698,-0.02844269,192.168.1.4,10.24.231.91,5,stationary,1,2014-09-25 20:24:51.420,0,2014-09-25 20:20:33.625,0
2014-09-25 20:24:51.633,160,1.6,0,0,0,0,0,0,0,-1,0.06784058,-0.0556488,-1.0215,0,0,0,0,0,-1,-0.01524979,0.009855294,0.007091998,2.949195,0.0687716,0.05311249,-0.0005153075,0.003346527,-0.001408644,0.0002424125,-0.003873535,-0.02743702,192.168.1.4,10.24.231.91,5,stationary,1,2014-09-25 20:24:51.420,0,2014-09-25 20:20:33.625,0
2014-09-25 20:24:51.654,161,1.61,0,0,0,0,0,0,0,-1,0.06970215,-0.05697632,-1.02301,0,0,0,0,0,-1,-0.0127347,0.01105079,0.008387093,2.949239,0.06876323,0.05311355,-0.0005430594,0.005826274,0.002429449,-0.0006647781,-0.0008512334,-0.02702451,192.168.1.4,10.24.231.91,5,stationary,1,2014-09-25 20:24:51.420,0,2014-09-25 20:20:33.625,0
2014-09-25 20:24:51.678,162,1.62,0,0,0,0,0,0,0,-1,0.07107544,-0.05569458,-1.024582,0,0,0,0,0,-1,-0.01403273,0.005011004,0.008377772,2.949292,0.06884643,0.05321891,0.001972221,0.007021402,0.003724595,0.00100749,-0.003782522,-0.02679167,192.168.1.4,10.24.231.91,5,stationary,1,2014-09-25 20:24:51.420,0,2014-09-25 20:20:33.625,0
2014-09-25 20:24:51.701,163,1.63,0,0,0,0,0,0,0,-1,0.07029724,-0.05606079,-1.026428,0,0,0,0,0,-1,-0.0127403,0.006203035,0.00715911,2.949335,0.06892651,0.05330274,0.0006742651,0.000981688,0.0037153,0.002301311,-0.002417077,-0.02837328,192.168.1.4,10.24.231.91,5,stationary,1,2014-09-25 20:24:51.420,0,2014-09-25 20:20:33.625,0
2014-09-25 20:24:51.728,164,1.64,0,0,0,0,0,0,0,-1,0.06990051,-0.05451965,-1.026489,0,0,0,0,0,-1,-0.01771508,0.006217949,0.002075668,2.949439,0.06889671,0.05333365,-0.004376873,-0.001402485,0.002368076,-0.0003696963,-0.000814555,-0.03044807,192.168.1.4,10.24.231.91,5,stationary,1,2014-09-25 20:24:51.420,0,2014-09-25 20:20:33.625,0
2014-09-25 20:24:51.770,165,1.65,0,0,0,0,0,0,0,-1,0.06947327,-0.05534363,-1.023087,0,0,0,0,0,-1,-0.02160117,0.008706938,0.008198808,2.949432,0.06881914,0.05321338,-0.003091457,-0.001421057,0.001153182,-0.0003844135,-0.001560261,-0.03000911,192.168.1.4,10.24.231.91,5,stationary,1,2014-09-25 20:24:51.420,0,2014-09-25 20:20:33.625,0
2014-09-25 20:24:51.791,166,1.66,0,0,0,0,0,0,0,-1,0.07017517,-0.05516052,-1.026688,0,0,0,0,0,-1,-0.01774384,0.008652611,0.004554005,2.949463,0.06886922,0.05316358,-0.00689431,0.004676747,0.003536475,0.0007557016,-0.002205087,-0.0268666,192.168.1.4,10.24.231.91,5,stationary,1,2014-09-25 20:24:51.420,0,2014-09-25 20:20:33.625,0
2014-09-25 20:24:51.813,167,1.67,0,0,0,0,0,0,0,-1,0.0688324,-0.0532074,-1.025864,0,0,0,0,0,-1,-0.01269156,0.007398794,0.004669587,2.949515,0.06894618,0.05308988,-0.004303776,0.00467082,0.001218197,0.0005872097,-0.001820922,-0.02750885,192.168.1.4,10.24.231.91,5,stationary,1,2014-09-25 20:24:51.420,0,2014-09-25 20:20:33.625,0
2014-09-25 20:24:51.839,168,1.68,0,0,0,0,0,0,0,-1,0.06990051,-0.05482483,-1.028046,0,0,0,0,0,-1,-0.01398399,0.006206763,0.005888249,2.949529,0.06887815,0.05304204,0.002033857,0.003398269,0.0001188817,0.0002123018,0.0004048661,-0.03023297,192.168.1.4,10.24.231.91,5,stationary,1,2014-09-25 20:24:51.420,0,2014-09-25 20:20:33.625,0
2014-09-25 20:24:51.860,169,1.69,0,0,0,0,0,0,0,-1,0.07090759,-0.05325317,-1.024124,0,0,0,0,0,-1,-0.01396961,0.004989432,0.00464908,2.949553,0.06891199,0.0529927,0.0007411498,0.002206153,0.001337556,0.001795836,0.001103277,-0.02885939,192.168.1.4,10.24.231.91,5,stationary,1,2014-09-25 20:24:51.420,0,2014-09-25 20:20:33.625,0
2014-09-25 20:24:51.893,170,1.7,0,0,0,0,0,0,0,-1,0.07061768,-0.05404663,-1.021942,0,0,0,0,0,-1,-0.0139563,0.007409713,0.004641623,2.94953,0.06898944,0.05303726,0.004562869,0.00337654,0.0001748283,0.003122653,-0.001400448,-0.02865345,192.168.1.4,10.24.231.91,5,stationary,1,2014-09-25 20:24:51.420,0,2014-09-25 20:20:33.625,0
2014-09-25 20:24:51.919,171,1.71,0,0,0,0,0,0,0,-1,0.06987,-0.05606079,-1.024841,0,0,0,0,0,-1,-0.01394191,0.006192382,0.003402455,2.949533,0.0690324,0.05303792,0.0007685872,0.003409185,0.000090964,0.000653708,-0.001735482,-0.02932783,192.168.1.4,10.24.231.91,5,stationary,1,2014-09-25 20:24:51.420,0,2014-09-25 20:20:33.625,0
2014-09-25 20:24:51.940,172,1.72,0,0,0,0,0,0,0,-1,0.0710144,-0.05551147,-1.02272,0,0,0,0,0,-1,-0.02283821,0.009920808,0.006924219,2.949543,0.06909996,0.05297379,0.0007829078,0.00219198,-0.001148191,0.003180164,-0.001860552,-0.02729968,192.168.1.4,10.24.231.91,5,stationary,1,2014-09-25 20:24:51.420,0,2014-09-25 20:20:33.625,0
2014-09-25 20:24:51.961,173,1.73,0,0,0,0,0,0,0,-1,0.06994629,-0.0562439,-1.025085,0,0,0,0,0,-1,-0.01779258,0.007456851,0.007043528,2.949576,0.06915846,0.05295008,-0.008113208,0.005920279,0.002373622,0.002007908,-0.002586133,-0.02650901,192.168.1.4,10.24.231.91,5,stationary,1,2014-09-25 20:24:51.420,0,2014-09-25 20:20:33.625,0
2014-09-25 20:24:51.983,174,1.74,0,0,0,0,0,0,0,-1,0.06922913,-0.05465698,-1.024948,0,0,0,0,0,-1,-0.01656326,0.008670454,0.009553558,2.949624,0.06923486,0.05300782,0.005772497,0.005851812,0.005268773,0.002115116,-0.00341348,-0.03082031,192.168.1.4,10.24.231.91,5,stationary,1,2014-09-25 20:24:51.420,0,2014-09-25 20:20:33.625,0
2014-09-25 20:24:52.008,175,1.75,0,0,0,0,0,0,0,-1,0.06922913,-0.05500793,-1.026276,0,0,0,0,0,-1,-0.01656326,0.008670454,0.009553558,2.949647,0.06925959,0.05300461,-0.003009802,0.00347915,0.0001089137,0.001251236,-0.00201288,-0.0286551,192.168.1.4,10.24.231.91,5,stationary,1,2014-09-25 20:24:51.420,0,2014-09-25 20:20:33.625,0
2014-09-25 20:24:52.029,176,1.76,0,0,0,0,0,0,0,-1,0.07098389,-0.05558777,-1.026855,0,0,0,0,0,-1,-0.01271926,0.006195844,0.005916212,2.949744,0.06927411,0.05300835,-0.004358513,0.003518477,0.005052588,-0.000472199,-0.004206412,-0.03004485,192.168.1.4,10.24.231.91,5,stationary,1,2014-09-25 20:24:51.420,0,2014-09-25 20:20:33.625,0
2014-09-25 20:24:52.053,177,1.77,0,0,0,0,0,0,0,-1,0.07022095,-0.05500793,-1.025558,0,0,0,0,0,-1,-0.01782028,0.006253901,0.008290154,2.949809,0.06930263,0.05302941,-0.001716872,0.004670495,-0.001109619,0.0003997319,-0.004383745,-0.02885775,192.168.1.4,10.24.231.91,5,stationary,1,2014-09-25 20:24:51.420,0,2014-09-25 20:20:33.625,0
2014-09-25 20:24:52.079,178,1.78,0,0,0,0,0,0,0,-1,0.07099915,-0.05566406,-1.024612,0,0,0,0,0,-1,-0.02155802,0.005054946,0.004481301,2.949812,0.06929296,0.05299775,-0.003079,0.002289667,0.003841505,0.001080634,-0.002034989,-0.02935895,192.168.1.4,10.24.231.91,5,stationary,1,2014-09-25 20:24:51.420,0,2014-09-25 20:20:33.625,0
2014-09-25 20:24:52.100,179,1.79,0,0,0,0,0,0,0,-1,0.07077026,-0.05473328,-1.025543,0,0,0,0,0,-1,-0.01396961,0.004989432,0.00464908,2.949828,0.06936793,0.05290348,-0.00681668,0.001090731,3.267944E-005,0.001783805,-0.002785252,-0.02841312,192.168.1.4,10.24.231.91,5,stationary,1,2014-09-25 20:24:51.420,0,2014-09-25 20:20:33.625,0
2014-09-25 20:24:52.128,180,1.8,0,0,0,0,0,0,0,-1,0.06838989,-0.05532837,-1.026428,0,0,0,0,0,-1,-0.01655554,0.006242982,0.008318117,2.949848,0.06940608,0.05293666,-0.004280596,0.002278804,8.49175E-005,0.001013499,-0.0009821047,-0.02948562,192.168.1.4,10.24.231.91,5,stationary,1,2014-09-25 20:24:51.420,0,2014-09-25 20:20:33.625,0
2014-09-25 20:24:52.171,181,1.81,0,0,0,0,0,0,0,-1,0.07006836,-0.05470276,-1.026917,0,0,0,0,0,-1,-0.01522103,0.007420632,0.00461366,2.949869,0.06939475,0.05289603,-0.005559399,0.001124024,0.001404861,0.0003379932,-0.002045018,-0.02708706,192.168.1.4,10.24.231.91,5,stationary,1,2014-09-25 20:24:51.420,0,2014-09-25 20:20:33.625,0
2014-09-25 20:24:52.193,182,1.82,0,0,0,0,0,0,0,-1,0.07164001,-0.05352783,-1.026855,0,0,0,0,0,-1,-0.01519333,0.008623582,0.003367034,2.949871,0.06941698,0.05287728,-0.0004661054,0.003493277,0.000266392,0.001109238,-0.002002701,-0.0280947,192.168.1.4,10.24.231.91,5,stationary,1,2014-09-25 20:24:51.420,0,2014-09-25 20:20:33.625,0
