time,timestamp,recordtime,lat,long,alt,speed,course,verticalAccuracy,horizontalAccuracy,locTimeStamp,accelerationX,accelerationY,accelerationZ,HeadingX,HeadingY,HeadingZ,TrueHeading,MagneticHeading,HeadingAccuracy,RotationX,RotationY,RotationZ,motionYaw,motionRoll,motionPitch,motionRotationRateX,motionRotationRateY,motionRotationRateZ,motionUserAccelerationX,motionUserAccelerationY,motionUserAccelerationZ,en0,pdp_ip0,DeviceOrientation,Activity,Activity Confidence,Activity Start,Steps,Last Step Date,State
2014-09-21 00:36:26.896,1,0.01,0,0,0,0,0,0,0,-1,0.01571655,0.03514099,-1.060867,0,0,0,0,0,-1,-0.01028273,0.01226785,0.01341088,0.9927163,0.01228689,-0.03938749,-0.02482262,0.02063687,0.003921819,0.003836232,-0.0005284356,0.01333966,192.168.1.6,10.136.42.164,5,stationary,1,2014-09-21 00:36:26.139,0,2014-09-21 00:36:16.523,0
2014-09-21 00:36:26.934,2,0.02,0,0,0,0,0,0,0,-1,0.01068115,0.03799438,-1.004471,0,0,0,0,0,-1,-0.0291728,0.02331571,0.01171498,0.9926855,0.01214034,-0.03936985,0.007947016,-0.0232552,-0.002674277,-0.01295461,-0.007270445,-0.005838152,192.168.1.6,10.136.42.164,5,stationary,1,2014-09-21 00:36:26.139,0,2014-09-21 00:36:16.523,0
2014-09-21 00:36:26.967,3,0.03,0,0,0,0,0,0,0,-1,0.0160675,0.03981018,-1.019363,0,0,0,0,0,-1,-0.01915692,0.01235147,0.01445804,0.9927208,0.01235731,-0.03932533,-0.008387932,0.003526946,-0.0006337891,0.001477019,0.003043201,-0.05515546,192.168.1.6,10.136.42.164,5,stationary,1,2014-09-21 00:36:26.139,0,2014-09-21 00:36:16.523,0
2014-09-21 00:36:27.007,4,0.04,0,0,0,0,0,0,0,-1,0.01159668,0.03907776,-1.032303,0,0,0,0,0,-1,-0.01907276,0.01232271,0.009486446,0.9927817,0.01240606,-0.03943988,-0.002085253,0.003480601,0.0007490151,0.00367141,0.0003805308,-0.02021795,192.168.1.6,10.136.42.164,5,stationary,1,2014-09-21 00:36:26.139,0,2014-09-21 00:36:16.523,0
2014-09-21 00:36:27.033,5,0.05,0,0,0,0,0,0,0,-1,0.01367188,0.03897095,-1.027283,0,0,0,0,0,-1,-0.02168532,0.008735701,0.0131704,0.9929894,0.01244897,-0.03957677,0.0003757288,-0.001366675,0.00330584,-0.001101625,0.0004878837,-0.03504017,192.168.1.6,10.136.42.164,5,stationary,1,2014-09-21 00:36:26.139,0,2014-09-21 00:36:16.523,0
2014-09-21 00:36:27.111,6,0.06,0,0,0,0,0,0,0,-1,0.01347351,0.03929138,-1.028671,0,0,0,0,0,-1,-0.02168532,0.008735701,0.0131704,0.9929894,0.01244897,-0.03957677,0.0003757288,-0.001366675,0.00330584,-0.001101625,0.0004878837,-0.03504017,192.168.1.6,10.136.42.164,5,stationary,1,2014-09-21 00:36:26.139,0,2014-09-21 00:36:16.523,0
2014-09-21 00:36:27.155,7,0.07,0,0,0,0,0,0,0,-1,0.0124054,0.04046631,-1.032608,0,0,0,0,0,-1,-0.02044056,0.005094361,0.01320955,0.9931004,0.01266531,-0.0396609,-0.0008654686,-0.00136041,0.002035252,0.001428854,0.0009531386,-0.03280318,192.168.1.6,10.136.42.164,5,stationary,1,2014-09-21 00:36:26.139,0,2014-09-21 00:36:16.523,0
2014-09-21 00:36:27.187,8,0.08,0,0,0,0,0,0,0,-1,0.01353455,0.04058838,-1.02977,0,0,0,0,0,-1,-0.01155972,0.006220878,0.01215866,0.9930892,0.01267791,-0.03966109,-0.0008021235,-0.001381831,-0.001693411,0.0008822073,0.0004341476,-0.03258972,192.168.1.6,10.136.42.164,5,stationary,1,2014-09-21 00:36:26.139,0,2014-09-21 00:36:16.523,0
2014-09-21 00:36:27.218,9,0.09,0,0,0,0,0,0,0,-1,0.01593018,0.03921509,-1.032578,0,0,0,0,0,-1,-0.01402714,0.009858756,0.009605756,0.9932767,0.01269506,-0.03958737,-0.005922309,-0.001315657,0.001923605,0.0006361543,3.478901e-05,-0.03257176,192.168.1.6,10.136.42.164,5,stationary,1,2014-09-21 00:36:26.139,0,2014-09-21 00:36:16.523,0
2014-09-21 00:36:27.259,10,0.09999999,0,0,0,0,0,0,0,-1,0.01333618,0.03904724,-1.03212,0,0,0,0,0,-1,-0.01661972,0.009902165,0.01327852,0.9932984,0.01271195,-0.03960883,-0.005901658,0.002314848,0.001912454,0.0006650658,-0.001070033,-0.0346938,192.168.1.6,10.136.42.164,5,stationary,1,2014-09-21 00:36:26.139,0,2014-09-21 00:36:16.523,0
2014-09-21 00:36:27.284,11,0.11,0,0,0,0,0,0,0,-1,0.01438904,0.03782654,-1.03299,0,0,0,0,0,-1,-0.01529853,0.008659534,0.009581521,0.9934253,0.0128415,-0.03957282,-0.005926408,-0.002523906,0.001927574,0.0005203501,0.0006596741,-0.03121502,192.168.1.6,10.136.42.164,5,stationary,1,2014-09-21 00:36:26.139,0,2014-09-21 00:36:16.523,0
2014-09-21 00:36:27.329,12,0.12,0,0,0,0,0,0,0,-1,0.01054382,0.0413208,-1.033493,0,0,0,0,0,-1,-0.0203375,0.01233363,0.009458483,0.9934791,0.01287389,-0.03955454,0.001634739,-0.0001540464,0.00457379,0.001525575,-0.001717687,-0.03385448,192.168.1.6,10.136.42.164,5,stationary,1,2014-09-21 00:36:26.139,0,2014-09-21 00:36:16.523,0
2014-09-21 00:36:27.356,13,0.13,0,0,0,0,0,0,0,-1,0.01376343,0.03938293,-1.032166,0,0,0,0,0,-1,-0.0203375,0.01233363,0.009458483,0.9934791,0.01287389,-0.03955454,0.001634739,-0.0001540464,0.00457379,0.001525575,-0.001717687,-0.03385448,192.168.1.6,10.136.42.164,5,stationary,1,2014-09-21 00:36:26.139,0,2014-09-21 00:36:16.523,0
2014-09-21 00:36:27.404,14,0.14,0,0,0,0,0,0,0,-1,0.01383972,0.04187012,-1.031235,0,0,0,0,0,-1,-0.0190717,0.008685101,0.008254734,0.9936042,0.01285408,-0.03961458,-0.0008446971,0.00106323,0.00202851,0.001926863,0.001655545,-0.0323765,192.168.1.6,10.136.42.164,5,stationary,1,2014-09-21 00:36:26.139,0,2014-09-21 00:36:16.523,0
2014-09-21 00:36:27.430,15,0.15,0,0,0,0,0,0,0,-1,0.01383972,0.04187012,-1.031235,0,0,0,0,0,-1,-0.0190717,0.008685101,0.008254734,0.9936042,0.01285408,-0.03961458,-0.0008446971,0.00106323,0.00202851,0.001926863,0.001655545,-0.0323765,192.168.1.6,10.136.42.164,5,stationary,1,2014-09-21 00:36:26.139,0,2014-09-21 00:36:16.523,0
2014-09-21 00:36:27.472,16,0.16,0,0,0,0,0,0,0,-1,0.01324463,0.03961182,-1.032974,0,0,0,0,0,-1,-0.0216499,0.007511179,0.01068833,0.9937441,0.01286761,-0.03974906,-0.003505118,-0.003718441,0.00820215,0.001150478,0.002314631,-0.03303814,192.168.1.6,10.136.42.164,5,stationary,1,2014-09-21 00:36:26.139,0,2014-09-21 00:36:16.523,0
2014-09-21 00:36:27.505,17,0.17,0,0,0,0,0,0,0,-1,0.01382446,0.03877258,-1.031448,0,0,0,0,0,-1,-0.01781362,0.007464041,0.008286426,0.9937483,0.01289627,-0.03974256,0.002972341,0.001024729,0.0008697484,0.0003589029,-0.0001202833,-0.03384696,192.168.1.6,10.136.42.164,5,stationary,1,2014-09-21 00:36:26.139,0,2014-09-21 00:36:16.523,0
2014-09-21 00:36:27.538,18,0.18,0,0,0,0,0,0,0,-1,0.0164032,0.04057312,-1.03299,0,0,0,0,0,-1,-0.0204339,0.006304501,0.01320582,0.9939124,0.01294355,-0.03989131,-0.005865088,-0.0001151117,-0.0005650118,0.001959688,0.001058604,-0.03357884,192.168.1.6,10.136.42.164,5,stationary,1,2014-09-21 00:36:26.139,0,2014-09-21 00:36:16.523,0
2014-09-21 00:36:27.575,19,0.19,0,0,0,0,0,0,0,-1,0.01472473,0.03775024,-1.033768,0,0,0,0,0,-1,-0.01541038,0.007485347,0.01579974,0.9939566,0.01296844,-0.03991519,-0.004905288,-0.00145131,0.00307221,0.0008209407,-7.914927e-05,-0.03367167,192.168.1.6,10.136.42.164,5,stationary,1,2014-09-21 00:36:26.139,0,2014-09-21 00:36:16.523,0
2014-09-21 00:36:27.614,20,0.2,0,0,0,0,0,0,0,-1,0.01239014,0.03889465,-1.033157,0,0,0,0,0,-1,-0.01915479,0.005076251,0.01199461,0.9941946,0.01311676,-0.03978043,0.001405844,-0.0002860446,0.004451426,0.0006726772,-0.0007684732,-0.03462953,192.168.1.6,10.136.42.164,5,stationary,1,2014-09-21 00:36:26.139,0,2014-09-21 00:36:16.523,0
2014-09-21 00:36:27.651,21,0.21,0,0,0,0,0,0,0,-1,0.01420593,0.04212952,-1.034576,0,0,0,0,0,-1,-0.02042059,0.008724782,0.01319836,0.9942768,0.01308974,-0.03975305,-0.003686992,0.0009823466,0.006821724,0.0006538905,-0.0004511974,-0.03261393,192.168.1.6,10.136.42.164,5,stationary,1,2014-09-21 00:36:26.139,0,2014-09-21 00:36:16.523,0
2014-09-21 00:36:27.676,22,0.22,0,0,0,0,0,0,0,-1,0.01319885,0.04008484,-1.032654,0,0,0,0,0,-1,-0.02042059,0.008724782,0.01319836,0.9942768,0.01308974,-0.03975305,-0.003686992,0.0009823466,0.006821724,0.0006538905,-0.0004511974,-0.03261393,192.168.1.6,10.136.42.164,5,stationary,1,2014-09-21 00:36:26.139,0,2014-09-21 00:36:16.523,0
2014-09-21 00:36:27.718,23,0.23,0,0,0,0,0,0,0,-1,0.01448059,0.03939819,-1.03334,0,0,0,0,0,-1,-0.01787008,0.008695753,0.01201139,0.9944708,0.01314046,-0.03971146,-0.003622368,0.000961925,0.003093235,-5.293813e-05,-0.0005317079,-0.03506961,192.168.1.6,10.136.42.164,5,stationary,1,2014-09-21 00:36:26.139,0,2014-09-21 00:36:16.523,0
2014-09-21 00:36:27.745,24,0.24,0,0,0,0,0,0,0,-1,0.01374817,0.04000854,-1.032318,0,0,0,0,0,-1,-0.01787008,0.008695753,0.01201139,0.9944998,0.01319164,-0.03969161,0.002708291,0.002118056,0.003229369,0.002947676,-5.411142e-05,-0.03619865,192.168.1.6,10.136.42.164,5,stationary,1,2014-09-21 00:36:26.139,0,2014-09-21 00:36:16.523,0
2014-09-21 00:36:27.780,25,0.25,0,0,0,0,0,0,0,-1,0.01393127,0.04016113,-1.032959,0,0,0,0,0,-1,-0.01801628,0.005108476,0.01947996,0.9946147,0.01326717,-0.03977118,-0.001125874,-0.001470607,0.004399756,0.003421564,-0.0003777639,-0.03574504,192.168.1.6,10.136.42.164,5,stationary,1,2014-09-21 00:36:26.139,0,2014-09-21 00:36:16.523,0
2014-09-21 00:36:27.816,26,0.26,0,0,0,0,0,0,0,-1,0.01554871,0.03845215,-1.034531,0,0,0,0,0,-1,-0.02164884,0.003873568,0.009456619,0.9946423,0.01325357,-0.03983135,-0.007441979,-0.00384327,0.003024526,0.00135999,0.001850936,-0.03550311,192.168.1.6,10.136.42.164,5,stationary,1,2014-09-21 00:36:26.139,0,2014-09-21 00:36:16.523,0
2014-09-21 00:36:27.844,27,0.27,0,0,0,0,0,0,0,-1,0.01254272,0.04064941,-1.03537,0,0,0,0,0,-1,-0.01406815,0.006235525,0.01085984,0.9948357,0.01326718,-0.03986773,-0.003612133,-0.00146186,0.001858249,0.0008428674,0.001768806,-0.03515379,192.168.1.6,10.136.42.164,5,stationary,1,2014-09-21 00:36:26.139,0,2014-09-21 00:36:16.523,0
2014-09-21 00:36:27.892,28,0.28,0,0,0,0,0,0,0,-1,0.01475525,0.03965759,-1.033676,0,0,0,0,0,-1,-0.01789005,0.005065332,0.01202257,0.994844,0.01324621,-0.0398211,0.001468612,-0.001512629,0.0007272636,-0.0006925939,0.0008388352,-0.03625029,192.168.1.6,10.136.42.164,5,stationary,1,2014-09-21 00:36:26.139,0,2014-09-21 00:36:16.523,0
2014-09-21 00:36:27.918,29,0.29,0,0,0,0,0,0,0,-1,0.01359558,0.04084778,-1.033142,0,0,0,0,0,-1,-0.02670884,0.007554855,0.01057648,0.9950158,0.01331291,-0.03983312,-0.002416308,0.0009773588,0.006850554,0.000797161,0.0003232819,-0.03432905,192.168.1.6,10.136.42.164,5,stationary,1,2014-09-21 00:36:26.139,0,2014-09-21 00:36:16.523,0
2014-09-21 00:36:27.965,30,0.3,0,0,0,0,0,0,0,-1,0.01281738,0.04013062,-1.034378,0,0,0,0,0,-1,-0.01657764,0.009887785,0.01079273,0.995118,0.01330638,-0.03994526,0.0001343573,0.0009486203,0.00566366,0.0008495291,0.001279357,-0.03335687,192.168.1.6,10.136.42.164,5,stationary,1,2014-09-21 00:36:26.139,0,2014-09-21 00:36:16.523,0
2014-09-21 00:36:27.991,31,0.31,0,0,0,0,0,0,0,-1,0.01461792,0.04211426,-1.033295,0,0,0,0,0,-1,-0.01657764,0.009887785,0.01079273,0.995118,0.01330638,-0.03994526,0.0001343573,0.0009486203,0.00566366,0.0008495291,0.001279357,-0.03335687,192.168.1.6,10.136.42.164,5,stationary,1,2014-09-21 00:36:26.139,0,2014-09-21 00:36:16.523,0
2014-09-21 00:36:28.031,32,0.32,0,0,0,0,0,0,0,-1,0.01483154,0.03948975,-1.033783,0,0,0,0,0,-1,-0.0165345,0.006235792,0.00707522,0.9953774,0.01330542,-0.0400662,-0.004928473,-0.00385458,0.004324033,-0.0006448118,0.0002429758,-0.03525378,192.168.1.6,10.136.42.164,5,stationary,1,2014-09-21 00:36:26.139,0,2014-09-21 00:36:16.523,0
2014-09-21 00:36:28.064,33,0.33,0,0,0,0,0,0,0,-1,0.01467896,0.03877258,-1.033905,0,0,0,0,0,-1,-0.0165345,0.006235792,0.00707522,0.9954328,0.01331537,-0.04006225,-0.001169488,-0.002662363,0.006890029,0.002381741,0.0004758103,-0.03621506,192.168.1.6,10.136.42.164,5,stationary,1,2014-09-21 00:36:26.139,0,2014-09-21 00:36:16.523,0
2014-09-21 00:36:28.099,34,0.34,0,0,0,0,0,0,0,-1,0.0153656,0.04081726,-1.035492,0,0,0,0,0,-1,-0.02040621,0.007507451,0.01195919,0.9955514,0.01336664,-0.040189,-0.008749339,-0.001385614,0.006718708,0.001827047,-0.001970171,-0.03687695,192.168.1.6,10.136.42.164,5,stationary,2,2014-09-21 00:36:29.896,0,2014-09-21 00:36:16.523,0
2014-09-21 00:36:28.140,35,0.35,0,0,0,0,0,0,0,-1,0.01573181,0.0403595,-1.033401,0,0,0,0,0,-1,-0.01543914,0.009920008,0.01827807,0.9955601,0.01339846,-0.04021165,-0.001028141,-0.0002836123,-0.0005745883,0.002634503,0.001699821,-0.03539819,192.168.1.6,10.136.42.164,5,stationary,2,2014-09-21 00:36:29.896,0,2014-09-21 00:36:16.523,0
2014-09-21 00:36:28.175,36,0.36,0,0,0,0,0,0,0,-1,0.01455688,0.03968811,-1.031967,0,0,0,0,0,-1,-0.01789777,0.007492804,0.01325801,0.9956732,0.013484,-0.04026054,-0.008628785,0.001000567,0.0004970118,0.001816642,-0.0009277634,-0.0348825,192.168.1.6,10.136.42.164,5,stationary,2,2014-09-21 00:36:29.896,0,2014-09-21 00:36:16.523,0
2014-09-21 00:36:28.214,37,0.37,0,0,0,0,0,0,0,-1,0.0163269,0.03926086,-1.033752,0,0,0,0,0,-1,-0.02037851,0.008710401,0.01071257,0.9957608,0.01349795,-0.04031394,-0.00235324,-0.00024972,0.003126407,0.001070313,-0.000614914,-0.03287068,192.168.1.6,10.136.42.164,5,stationary,2,2014-09-21 00:36:29.896,0,2014-09-21 00:36:16.523,0
2014-09-21 00:36:28.240,38,0.38,0,0,0,0,0,0,0,-1,0.01405334,0.0410614,-1.036057,0,0,0,0,0,-1,-0.02037851,0.008710401,0.01071257,0.9957608,0.01349795,-0.04031394,-0.00235324,-0.00024972,0.003126407,0.001070313,-0.000614914,-0.03287068,192.168.1.6,10.136.42.164,5,stationary,2,2014-09-21 00:36:29.896,0,2014-09-21 00:36:16.523,0
2014-09-21 00:36:28.283,39,0.39,0,0,0,0,0,0,0,-1,0.01268005,0.03804016,-1.032303,0,0,0,0,0,-1,-0.01035144,0.007441671,0.01591159,0.9960091,0.01359002,-0.04026007,-0.001036533,0.0009366361,0.0006651141,0.00134451,-0.002163254,-0.03691334,192.168.1.6,10.136.42.164,5,stationary,2,2014-09-21 00:36:29.896,0,2014-09-21 00:36:16.523,0
2014-09-21 00:36:28.312,40,0.4,0,0,0,0,0,0,0,-1,0.01268005,0.03804016,-1.032303,0,0,0,0,0,-1,-0.01035144,0.007441671,0.01591159,0.9960091,0.01359002,-0.04026007,-0.001036533,0.0009366361,0.0006651141,0.00134451,-0.002163254,-0.03691334,192.168.1.6,10.136.42.164,5,stationary,2,2014-09-21 00:36:29.896,0,2014-09-21 00:36:16.523,0
2014-09-21 00:36:28.350,41,0.41,0,0,0,0,0,0,0,-1,0.01478577,0.03804016,-1.034561,0,0,0,0,0,-1,-0.01540372,0.008695487,0.01579601,0.9962736,0.01360697,-0.04021565,-0.001244524,-0.0003612494,0.003052613,0.001724273,0.0002004587,-0.03576737,192.168.1.6,10.136.42.164,5,stationary,2,2014-09-21 00:36:29.896,0,2014-09-21 00:36:16.523,0
2014-09-21 00:36:28.381,42,0.42,0,0,0,0,0,0,0,-1,0.01394653,0.04156494,-1.035538,0,0,0,0,0,-1,-0.01665408,0.007489075,0.01452888,0.9962668,0.01359419,-0.04019667,-0.002473539,-0.001574775,0.0005426136,0.0007757326,-0.0002078221,-0.03463728,192.168.1.6,10.136.42.164,5,stationary,2,2014-09-21 00:36:29.896,0,2014-09-21 00:36:16.523,0
2014-09-21 00:36:28.414,43,0.43,0,0,0,0,0,0,0,-1,0.01554871,0.0413208,-1.033432,0,0,0,0,0,-1,-0.0216776,0.00630823,0.01193496,0.9965938,0.01363338,-0.04016845,-0.00259755,-0.001530752,0.008000184,0.001423206,-0.001568171,-0.03504867,192.168.1.6,10.136.42.164,5,stationary,2,2014-09-21 00:36:29.896,0,2014-09-21 00:36:16.523,0
2014-09-21 00:36:28.456,44,0.44,0,0,0,0,0,0,0,-1,0.01623535,0.04116821,-1.036545,0,0,0,0,0,-1,-0.01531184,0.006239254,0.009588978,0.9966877,0.01364364,-0.04013177,-0.006285248,-0.001533484,0.001701888,0.002358981,-0.001439969,-0.03614597,192.168.1.6,10.136.42.164,5,stationary,2,2014-09-21 00:36:29.896,0,2014-09-21 00:36:16.523,0
2014-09-21 00:36:28.482,45,0.45,0,0,0,0,0,0,0,-1,0.01368713,0.04095459,-1.035904,0,0,0,0,0,-1,-0.01908501,0.00626482,0.008262191,0.9968632,0.01372804,-0.04026132,-0.003811745,-0.0003220258,0.005482954,0.001481265,-0.000836991,-0.0337567,192.168.1.6,10.136.42.164,5,stationary,2,2014-09-21 00:36:29.896,0,2014-09-21 00:36:16.523,0
2014-09-21 00:36:28.527,46,0.46,0,0,0,0,0,0,0,-1,0.01611328,0.04260254,-1.033524,0,0,0,0,0,-1,-0.01404045,0.007438475,0.009613212,0.9969203,0.01369849,-0.04030502,-0.003946901,-0.0003489729,0.009156971,1.985963e-07,0.0006604803,-0.03680981,192.168.1.6,10.136.42.164,5,stationary,2,2014-09-21 00:36:29.896,0,2014-09-21 00:36:16.523,0
2014-09-21 00:36:28.552,47,0.47,0,0,0,0,0,0,0,-1,0.01611328,0.04260254,-1.033524,0,0,0,0,0,-1,-0.01404045,0.007438475,0.009613212,0.9969203,0.01369849,-0.04030502,-0.003946901,-0.0003489729,0.009156971,1.985963e-07,0.0006604803,-0.03680981,192.168.1.6,10.136.42.164,5,stationary,2,2014-09-21 00:36:29.896,0,2014-09-21 00:36:16.523,0
2014-09-21 00:36:28.593,48,0.48,0,0,0,0,0,0,0,-1,0.01556396,0.04078674,-1.033386,0,0,0,0,0,-1,-0.02176175,0.006336992,0.01690655,0.997251,0.01382618,-0.04037606,-0.007627851,0.000859356,0.0028551,0.002985459,-0.0003107645,-0.03785203,192.168.1.6,10.136.42.164,5,stationary,2,2014-09-21 00:36:29.896,0,2014-09-21 00:36:16.523,0
2014-09-21 00:36:28.625,49,0.49,0,0,0,0,0,0,0,-1,0.01564026,0.04045105,-1.033569,0,0,0,0,0,-1,-0.02545849,0.008761267,0.01184361,0.9972976,0.01384533,-0.0404124,-0.003867808,-0.001586141,0.004189379,0.002264435,0.0003090447,-0.03652625,192.168.1.6,10.136.42.164,5,stationary,2,2014-09-21 00:36:29.896,0,2014-09-21 00:36:16.523,0
2014-09-21 00:36:28.659,50,0.5,0,0,0,0,0,0,0,-1,0.01481628,0.04193115,-1.034042,0,0,0,0,0,-1,-0.02167866,0.009945842,0.01316667,0.997475,0.01389331,-0.04058956,-0.006340936,0.0008426436,0.001640349,0.0002787314,-0.0003867607,-0.03628995,192.168.1.6,10.136.42.164,5,stationary,2,2014-09-21 00:36:29.896,0,2014-09-21 00:36:16.523,0
2014-09-21 00:36:28.694,51,0.51,0,0,0,0,0,0,0,-1,0.0161438,0.03994751,-1.033447,0,0,0,0,0,-1,-0.0229434,0.00995676,0.0131387,0.997532,0.0139069,-0.04064361,-0.00516606,-0.001593939,0.002691625,0.0009213221,0.001298732,-0.03496481,192.168.1.6,10.136.42.164,5,stationary,2,2014-09-21 00:36:29.896,0,2014-09-21 00:36:16.523,0
2014-09-21 00:36:28.729,52,0.52,0,0,0,0,0,0,0,-1,0.01487732,0.04077148,-1.034119,0,0,0,0,0,-1,-0.01152536,0.008633968,0.01090831,0.9976817,0.01396808,-0.04070609,-0.006387048,-0.001597053,0.0001780107,0.0005245375,0.0001071525,-0.03440363,192.168.1.6,10.136.42.164,5,stationary,2,2014-09-21 00:36:29.896,0,2014-09-21 00:36:16.523,0
2014-09-21 00:36:28.769,53,0.53,0,0,0,0,0,0,0,-1,0.0138092,0.04100037,-1.034592,0,0,0,0,0,-1,-0.01163056,0.008669921,0.01712279,0.9977708,0.01395606,-0.04067929,-0.007707619,-0.0003546137,0.003875085,0.0009332613,0.0001034065,-0.03504324,192.168.1.6,10.136.42.164,5,stationary,2,2014-09-21 00:36:29.896,0,2014-09-21 00:36:16.523,0
2014-09-21 00:36:28.805,54,0.54,0,0,0,0,0,0,0,-1,0.01457214,0.04039001,-1.0327,0,0,0,0,0,-1,-0.01161511,0.003814978,0.01465191,0.9979227,0.0139501,-0.04065882,-0.001368026,-0.00162677,0.002775855,-0.0003883149,-0.001432535,-0.03388266,192.168.1.6,10.136.42.164,5,stationary,2,2014-09-21 00:36:29.896,0,2014-09-21 00:36:16.523,0
2014-09-21 00:36:28.843,55,0.55,0,0,0,0,0,0,0,-1,0.01425171,0.04020691,-1.034714,0,0,0,0,0,-1,-0.02037851,0.008710401,0.01071257,0.9980317,0.01387435,-0.04062942,-0.008913838,-0.001575981,0.0001223372,-0.0007856726,0.001236616,-0.03505534,192.168.1.6,10.136.42.164,5,stationary,2,2014-09-21 00:36:29.896,0,2014-09-21 00:36:16.523,0
2014-09-21 00:36:28.871,56,0.56,0,0,0,0,0,0,0,-1,0.01425171,0.04020691,-1.034714,0,0,0,0,0,-1,-0.02037851,0.008710401,0.01071257,0.9980317,0.01387435,-0.04062942,-0.008913838,-0.001575981,0.0001223372,-0.0007856726,0.001236616,-0.03505534,192.168.1.6,10.136.42.164,5,stationary,2,2014-09-21 00:36:29.896,0,2014-09-21 00:36:16.523,0
2014-09-21 00:36:28.913,57,0.57,0,0,0,0,0,0,0,-1,0.01609802,0.04164124,-1.03418,0,0,0,0,0,-1,-0.02167094,0.00751837,0.01193123,0.9982372,0.01386052,-0.04079916,-0.007669227,-0.001578679,0.001393413,0.00108981,0.001601074,-0.03565715,192.168.1.6,10.136.42.164,5,stationary,2,2014-09-21 00:36:29.896,0,2014-09-21 00:36:16.523,0
2014-09-21 00:36:28.944,58,0.58,0,0,0,0,0,0,0,-1,0.01316833,0.04190063,-1.033188,0,0,0,0,0,-1,-0.01417334,0.006271478,0.01707432,0.9982681,0.01388467,-0.04086643,-0.006397692,-0.0003790612,0.001417683,0.002591605,0.0004504862,-0.03498884,192.168.1.6,10.136.42.164,5,stationary,2,2014-09-21 00:36:29.896,0,2014-09-21 00:36:16.523,0
2014-09-21 00:36:28.981,59,0.59,0,0,0,0,0,0,0,-1,0.01460266,0.04159546,-1.033752,0,0,0,0,0,-1,-0.01916917,0.006293582,0.01323378,0.9985677,0.01385179,-0.04099463,-0.007716742,-0.002773883,0.003883119,0.001968397,0.0007649022,-0.03325413,192.168.1.6,10.136.42.164,5,stationary,2,2014-09-21 00:36:29.896,0,2014-09-21 00:36:16.523,0
2014-09-21 00:36:29.023,60,0.6,0,0,0,0,0,0,0,-1,0.01541138,0.04063416,-1.033371,0,0,0,0,0,-1,-0.01916917,0.006293582,0.01323378,0.9986106,0.0138559,-0.04099872,-0.003902174,0.0008237323,0.003955863,-0.0001109046,-0.0005819599,-0.03577206,192.168.1.6,10.136.42.164,5,stationary,2,2014-09-21 00:36:29.896,0,2014-09-21 00:36:16.523,0
2014-09-21 00:36:29.055,61,0.61,0,0,0,0,0,0,0,-1,0.01551819,0.04190063,-1.034927,0,0,0,0,0,-1,-0.01917689,0.008721054,0.01446922,0.9987832,0.01383305,-0.04092735,0.001262856,0.0007446977,-0.002146636,0.001758197,0.001274623,-0.03564675,192.168.1.6,10.136.42.164,5,stationary,2,2014-09-21 00:36:29.896,0,2014-09-21 00:36:16.523,0
2014-09-21 00:36:29.092,62,0.62,0,0,0,0,0,0,0,-1,0.01693726,0.04125977,-1.033508,0,0,0,0,0,-1,-0.01916917,0.006293582,0.01323378,0.9988204,0.01385613,-0.04098146,-0.001299997,-0.001646104,-0.0009521106,0.001674131,0.0009306393,-0.0358629,192.168.1.6,10.136.42.164,5,stationary,2,2014-09-21 00:36:29.896,0,2014-09-21 00:36:16.523,0
2014-09-21 00:36:29.130,63,0.63,0,0,0,0,0,0,0,-1,0.0158844,0.04324341,-1.035309,0,0,0,0,0,-1,-0.01413127,0.006257097,0.01458853,0.9991543,0.01389929,-0.04088664,-0.005239679,-0.001562028,0.007664465,0.001295268,-0.0006378262,-0.03579859,192.168.1.6,10.136.42.164,5,stationary,2,2014-09-21 00:36:29.896,0,2014-09-21 00:36:16.523,0
2014-09-21 00:36:29.173,64,0.64,0,0,0,0,0,0,0,-1,0.01559448,0.04174805,-1.036041,0,0,0,0,0,-1,-0.01793985,0.007507185,0.01574381,0.9992091,0.01389326,-0.04089217,0.001147418,-0.001637782,0.004075641,0.002003204,0.002362635,-0.03624123,192.168.1.6,10.136.42.164,5,stationary,2,2014-09-21 00:36:29.896,0,2014-09-21 00:36:16.523,0
2014-09-21 00:36:29.217,65,0.65,0,0,0,0,0,0,0,-1,0.01535034,0.04042053,-1.035202,0,0,0,0,0,-1,-0.01914813,0.006286392,0.01199088,0.9995406,0.01390247,-0.04085917,0.003768957,-0.0004778839,-0.0008435476,-0.001637612,0.002380345,-0.03622476,192.168.1.6,10.136.42.164,5,stationary,2,2014-09-21 00:36:29.896,0,2014-09-21 00:36:16.523,0
2014-09-21 00:36:29.277,66,0.66,0,0,0,0,0,0,0,-1,0.01477051,0.04037476,-1.034973,0,0,0,0,0,-1,-0.02167653,0.002670618,0.01070324,0.9997611,0.01386519,-0.04093207,-0.006459004,-0.001564261,0.00515113,0.0006427146,-0.001171495,-0.03551006,192.168.1.6,10.136.42.164,5,stationary,2,2014-09-21 00:36:29.896,0,2014-09-21 00:36:16.523,0
2014-09-21 00:36:29.334,67,0.67,0,0,0,0,0,0,0,-1,0.01318359,0.03945923,-1.035233,0,0,0,0,0,-1,-0.01921125,0.006307963,0.01571957,0.9998609,0.01380488,-0.04096718,-0.006393581,-0.005223302,0.0001908081,0.00125231,-0.0002300131,-0.03754008,192.168.1.6,10.136.42.164,5,stationary,2,2014-09-21 00:36:29.896,0,2014-09-21 00:36:16.523,0
2014-09-21 00:36:29.384,68,0.68,0,0,0,0,0,0,0,-1,0.01358032,0.0401001,-1.035294,0,0,0,0,0,-1,-0.01800963,0.006318616,0.01947623,1.000075,0.01375758,-0.04099653,-0.003835163,-0.0004039987,0.000232001,0.001482681,-0.0005492578,-0.0369608,192.168.1.6,10.136.42.164,5,stationary,2,2014-09-21 00:36:29.896,0,2014-09-21 00:36:16.523,0
2014-09-21 00:36:29.427,69,0.69,0,0,0,0,0,0,0,-1,0.01542664,0.03967285,-1.035889,0,0,0,0,0,-1,-0.02045494,0.006311692,0.01444871,1.000099,0.01377492,-0.0410011,0.001209561,0.0007699209,0.001583056,0.001831578,0.0004532589,-0.03682389,192.168.1.6,10.136.42.164,5,stationary,2,2014-09-21 00:36:29.896,0,2014-09-21 00:36:16.523,0
2014-09-21 00:36:29.489,70,0.7,0,0,0,0,0,0,0,-1,0.01446533,0.04031372,-1.035248,0,0,0,0,0,-1,-0.01291633,0.008688031,0.01833773,1.000446,0.01385588,-0.04094248,0.001148394,0.003186183,0.002514083,-6.51351e-05,-0.000327407,-0.03770762,192.168.1.6,10.136.42.164,5,stationary,2,2014-09-21 00:36:29.896,0,2014-09-21 00:36:16.523,0
2014-09-21 00:36:29.547,71,0.71,0,0,0,0,0,0,0,-1,0.01528931,0.03819275,-1.036545,0,0,0,0,0,-1,-0.02053244,0.007550594,0.01941657,1.000565,0.0138565,-0.0408398,-0.0001763061,-0.0004176137,0.004983337,8.676827e-05,0.0001261439,-0.03742877,192.168.1.6,10.136.42.164,5,stationary,2,2014-09-21 00:36:29.896,0,2014-09-21 00:36:16.523,0
2014-09-21 00:36:29.595,72,0.72,0,0,0,0,0,0,0,-1,0.01667786,0.040802,-1.037537,0,0,0,0,0,-1,-0.01917689,0.008721054,0.01446922,1.000839,0.01389598,-0.04081355,-0.002669669,0.002005051,0.002269747,0.0007644766,0.0001218503,-0.0372604,192.168.1.6,10.136.42.164,5,stationary,2,2014-09-21 00:36:29.896,0,2014-09-21 00:36:16.523,0
2014-09-21 00:36:29.662,73,0.73,0,0,0,0,0,0,0,-1,0.01507568,0.04098511,-1.036453,0,0,0,0,0,-1,-0.01796755,0.006304235,0.01699043,1.000905,0.01389393,-0.04078854,0.002327597,-0.001654585,0.004878611,0.0009190964,-0.001028087,-0.03748823,192.168.1.6,10.136.42.164,5,stationary,2,2014-09-21 00:36:29.896,0,2014-09-21 00:36:16.523,0
2014-09-21 00:36:29.699,74,0.74,0,0,0,0,0,0,0,-1,0.0160675,0.03923035,-1.036621,0,0,0,0,0,-1,-0.02171302,0.007532751,0.01441702,1.001192,0.01398958,-0.04088425,-0.003889207,-0.001634214,-0.001475446,0.003127665,0.00105829,-0.03824116,192.168.1.6,10.136.42.164,5,stationary,2,2014-09-21 00:36:29.896,0,2014-09-21 00:36:16.523,0
2014-09-21 00:36:29.742,75,0.75,0,0,0,0,0,0,0,-1,0.01582336,0.0415802,-1.036362,0,0,0,0,0,-1,-0.01803067,0.006325806,0.02071913,1.001211,0.01398258,-0.04088189,-0.001387286,-0.002858753,-0.0001728615,0.002020767,0.0004350325,-0.03807312,192.168.1.6,10.136.42.164,5,stationary,2,2014-09-21 00:36:29.896,0,2014-09-21 00:36:16.523,0
2014-09-21 00:36:29.802,76,0.76,0,0,0,0,0,0,0,-1,0.0151062,0.04267883,-1.036301,0,0,0,0,0,-1,-0.01783466,0.007471232,0.009529323,1.00173,0.01416508,-0.04082778,-0.001378642,0.001991453,0.001055486,0.001884182,-0.0004721992,-0.03845494,192.168.1.6,10.136.42.164,5,stationary,2,2014-09-21 00:36:29.896,0,2014-09-21 00:36:16.523,0
2014-09-21 00:36:29.865,77,0.77,0,0,0,0,0,0,0,-1,0.01472473,0.04240417,-1.036346,0,0,0,0,0,-1,-0.02047598,0.006318882,0.01569161,1.00178,0.01417677,-0.04079376,-0.002719017,-0.0003960447,0.004763766,0.000941695,0.001896389,-0.03723301,192.168.1.6,10.136.42.164,5,stationary,2,2014-09-21 00:36:29.896,0,2014-09-21 00:36:16.523,0
2014-09-21 00:36:29.895,78,0.78,0,0,0,0,0,0,0,-1,0.01576233,0.04098511,-1.035645,0,0,0,0,0,-1,-0.01788339,0.006275473,0.01201885,1.001871,0.01418215,-0.0408806,-0.005255254,-0.001584001,0.004711635,0.0005549013,0.001534959,-0.03728241,192.168.1.6,10.136.42.164,5,stationary,2,2014-09-21 00:36:29.896,0,2014-09-21 00:36:16.523,0
2014-09-21 00:36:29.931,79,0.79,0,0,0,0,0,0,0,-1,0.01542664,0.03973389,-1.035614,0,0,0,0,0,-1,-0.0192456,0.003894873,0.01696993,1.002106,0.0142763,-0.04087343,-0.0002095038,-0.0004089007,0.00606285,0.002886984,0.001145399,-0.03883985,192.168.1.6,10.136.42.164,5,stationary,2,2014-09-21 00:36:29.896,0,2014-09-21 00:36:16.523,0
2014-09-21 00:36:29.982,80,0.8,0,0,0,0,0,0,0,-1,0.01449585,0.04039001,-1.036179,0,0,0,0,0,-1,-0.01412461,0.007467237,0.0145848,1.002158,0.01425335,-0.04085611,-0.002751838,-0.002807406,0.006014412,4.125205e-05,-0.00144655,-0.03651948,192.168.1.6,10.136.42.164,5,stationary,2,2014-09-21 00:36:29.896,0,2014-09-21 00:36:16.523,0
2014-09-21 00:36:30.016,81,0.81,0,0,0,0,0,0,0,-1,0.01506042,0.03895569,-1.037277,0,0,0,0,0,-1,-0.0153683,0.007470966,0.01331394,1.00245,0.01429092,-0.04074482,-0.001430355,0.003225836,0.004781057,0.0007055608,-0.001564234,-0.03883482,192.168.1.6,10.136.42.164,5,stationary,2,2014-09-21 00:36:29.896,0,2014-09-21 00:36:16.523,0
2014-09-21 00:36:30.058,82,0.82,0,0,0,0,0,0,0,-1,0.01553345,0.04034424,-1.036789,0,0,0,0,0,-1,-0.01037914,0.006238721,0.01715821,1.002576,0.01432854,-0.04075244,-0.0001431828,-0.0004292242,0.00233447,0.001980234,0.0001523959,-0.0375997,192.168.1.6,10.136.42.164,5,stationary,2,2014-09-21 00:36:29.896,0,2014-09-21 00:36:16.523,0
2014-09-21 00:36:30.089,83,0.83,0,0,0,0,0,0,0,-1,0.01542664,0.03819275,-1.036682,0,0,0,0,0,-1,-0.01803067,0.006325806,0.02071913,1.002712,0.01437045,-0.0407644,-0.007660099,0.0008263154,-0.001565525,0.001266981,0.001300117,-0.03683785,192.168.1.6,10.136.42.164,5,stationary,2,2014-09-21 00:36:29.896,0,2014-09-21 00:36:16.523,0
2014-09-21 00:36:30.130,84,0.84,0,0,0,0,0,0,0,-1,0.01675415,0.04136658,-1.039307,0,0,0,0,0,-1,-0.01919686,0.005090632,0.01448041,1.002816,0.01437635,-0.0407775,-0.002803128,-0.001572719,0.009739929,0.001062736,-0.002573447,-0.03761667,192.168.1.6,10.136.42.164,5,stationary,2,2014-09-21 00:36:29.896,0,2014-09-21 00:36:16.523,0
2014-09-21 00:36:30.156,85,0.85,0,0,0,0,0,0,0,-1,0.01473999,0.04084778,-1.037979,0,0,0,0,0,-1,-0.01919686,0.005090632,0.01448041,1.002816,0.01437635,-0.0407775,-0.002803128,-0.001572719,0.009739929,0.001062736,-0.002573447,-0.03761667,192.168.1.6,10.136.42.164,5,stationary,2,2014-09-21 00:36:29.896,0,2014-09-21 00:36:16.523,0
2014-09-21 00:36:30.198,86,0.86,0,0,0,0,0,0,0,-1,0.01438904,0.03965759,-1.037735,0,0,0,0,0,-1,-0.01789112,0.008702944,0.01325429,1.003241,0.01434648,-0.04087723,0.002363252,-0.001651392,0.003637533,0.003152566,0.000103998,-0.03891731,192.168.1.6,10.136.42.164,5,stationary,2,2014-09-21 00:36:29.896,0,2014-09-21 00:36:16.523,0
2014-09-21 00:36:30.227,87,0.87,0,0,0,0,0,0,0,-1,0.01438904,0.03965759,-1.037735,0,0,0,0,0,-1,-0.01930312,0.008764197,0.0219266,1.003307,0.01431233,-0.04089834,-0.00405005,-0.006415495,0.007241357,0.002240658,0.0006627403,-0.03925337,192.168.1.6,10.136.42.164,5,stationary,2,2014-09-21 00:36:29.896,0,2014-09-21 00:36:16.523,0
2014-09-21 00:36:30.261,88,0.88,0,0,0,0,0,0,0,-1,0.0151825,0.04052734,-1.039169,0,0,0,0,0,-1,-0.01670947,0.005083175,0.01702213,1.00351,0.01432589,-0.04094404,-0.001414711,-0.002848328,0.0008396393,0.001479452,0.001380024,-0.03953009,192.168.1.6,10.136.42.164,5,stationary,2,2014-09-21 00:36:29.896,0,2014-09-21 00:36:16.523,0
2014-09-21 00:36:30.296,89,0.89,0,0,0,0,0,0,0,-1,0.01615906,0.04019165,-1.036316,0,0,0,0,0,-1,-0.01537603,0.009898437,0.01454938,1.003651,0.01435043,-0.04088905,-0.001497967,-0.002819081,0.005811309,0.00183637,-0.001326877,-0.03910095,192.168.1.6,10.136.42.164,5,stationary,2,2014-09-21 00:36:29.896,0,2014-09-21 00:36:16.523,0
2014-09-21 00:36:30.328,90,0.9,0,0,0,0,0,0,0,-1,0.01564026,0.04244995,-1.036224,0,0,0,0,0,-1,-0.01792547,0.006289854,0.01450464,1.003841,0.01438558,-0.04081733,-0.0002105329,-0.002836178,0.004596569,0.002869328,-0.00157565,-0.03613832,192.168.1.6,10.136.42.164,5,stationary,2,2014-09-21 00:36:29.896,0,2014-09-21 00:36:16.523,0
2014-09-21 00:36:30.368,91,0.91,0,0,0,0,0,0,0,-1,0.01661682,0.04188538,-1.036804,0,0,0,0,0,-1,-0.01666846,0.008706407,0.01576804,1.003888,0.0144322,-0.04086622,-0.002712009,-0.001610848,0.003294073,0.001220605,0.001595103,-0.03716333,192.168.1.6,10.136.42.164,5,stationary,2,2014-09-21 00:36:29.896,0,2014-09-21 00:36:16.523,0
2014-09-21 00:36:30.396,92,0.92,0,0,0,0,0,0,0,-1,0.01661682,0.04188538,-1.036804,0,0,0,0,0,-1,-0.01666846,0.008706407,0.01576804,1.003925,0.01443127,-0.04087889,-0.007783939,-0.003987102,0.003189718,0.002777944,-0.0008131818,-0.03836928,192.168.1.6,10.136.42.164,5,stationary,2,2014-09-21 00:36:29.896,0,2014-09-21 00:36:16.523,0
2014-09-21 00:36:30.443,93,0.93,0,0,0,0,0,0,0,-1,0.01469421,0.0425415,-1.037628,0,0,0,0,0,-1,-0.01922563,0.007525294,0.01695874,1.004152,0.01440778,-0.04083389,0.001044876,-0.004056175,0.004493808,0.001931631,0.0007881735,-0.03739054,192.168.1.6,10.136.42.164,5,stationary,2,2014-09-21 00:36:29.896,0,2014-09-21 00:36:16.523,0
2014-09-21 00:36:30.468,94,0.94,0,0,0,0,0,0,0,-1,0.01643372,0.04188538,-1.03595,0,0,0,0,0,-1,-0.0154735,0.007506919,0.01952843,1.004201,0.01441569,-0.04080736,-0.004014649,-0.000374658,0.005613709,0.002015268,-0.001992936,-0.03767949,192.168.1.6,10.136.42.164,5,stationary,2,2014-09-21 00:36:29.896,0,2014-09-21 00:36:16.523,0
2014-09-21 00:36:30.510,95,0.95,0,0,0,0,0,0,0,-1,0.01789856,0.04104614,-1.036041,0,0,0,0,0,-1,-0.01789777,0.007492804,0.01325801,1.004464,0.01441469,-0.04091257,-0.0027707,-0.0003776254,0.00688473,0.001421234,0.000785856,-0.0360816,192.168.1.6,10.136.42.164,5,stationary,2,2014-09-21 00:36:29.896,0,2014-09-21 00:36:16.523,0
2014-09-21 00:36:30.543,96,0.96,0,0,0,0,0,0,0,-1,0.01470947,0.04104614,-1.036346,0,0,0,0,0,-1,-0.01925332,0.006322344,0.01820537,1.004519,0.01441233,-0.04090524,-0.002777007,-0.001587624,0.006888507,0.0008742769,0.001006797,-0.03672213,192.168.1.6,10.136.42.164,5,stationary,2,2014-09-21 00:36:29.896,0,2014-09-21 00:36:16.523,0
2014-09-21 00:36:30.575,97,0.97,0,0,0,0,0,0,0,-1,0.01548767,0.04264832,-1.034836,0,0,0,0,0,-1,-0.01793319,0.008717326,0.01574008,1.004857,0.01443385,-0.04097166,-0.006499917,-0.0003651204,0.003072397,0.001463164,-0.001592518,-0.03907501,192.168.1.6,10.136.42.164,5,stationary,2,2014-09-21 00:36:29.896,0,2014-09-21 00:36:16.523,0
2014-09-21 00:36:30.614,98,0.98,0,0,0,0,0,0,0,-1,0.01422119,0.04144287,-1.038437,0,0,0,0,0,-1,-0.01787673,0.007485613,0.01201512,1.004985,0.01444907,-0.0410051,-0.002722469,0.0008195952,0.004263798,0.001051245,0.001654699,-0.03578071,192.168.1.6,10.136.42.164,5,stationary,2,2014-09-21 00:36:29.896,0,2014-09-21 00:36:16.523,0
2014-09-21 00:36:30.640,99,0.9899999,0,0,0,0,0,0,0,-1,0.01496887,0.04185486,-1.036835,0,0,0,0,0,-1,-0.01787673,0.007485613,0.01201512,1.004985,0.01444907,-0.0410051,-0.002722469,0.0008195952,0.004263798,0.001051245,0.001654699,-0.03578071,192.168.1.6,10.136.42.164,5,stationary,2,2014-09-21 00:36:29.896,0,2014-09-21 00:36:16.523,0
2014-09-21 00:36:30.681,100,1,0,0,0,0,0,0,0,-1,0.01780701,0.04034424,-1.035065,0,0,0,0,0,-1,-0.01675821,0.003887416,0.01951165,1.005237,0.01440878,-0.04103503,-0.002748298,-0.0003827274,0.005510668,0.00190023,0.0006634987,-0.03745982,192.168.1.6,10.136.42.164,5,stationary,2,2014-09-21 00:36:29.896,0,2014-09-21 00:36:16.523,0
2014-09-21 00:36:30.711,101,1.01,0,0,0,0,0,0,0,-1,0.01602173,0.04164124,-1.0336,0,0,0,0,0,-1,-0.01675821,0.003887416,0.01951165,1.005237,0.01440878,-0.04103503,-0.002748298,-0.0003827274,0.005510668,0.00190023,0.0006634987,-0.03745982,192.168.1.6,10.136.42.164,5,stationary,2,2014-09-21 00:36:29.896,0,2014-09-21 00:36:16.523,0
2014-09-21 00:36:30.751,102,1.02,0,0,0,0,0,0,0,-1,0.01522827,0.04078674,-1.034683,0,0,0,0,0,-1,-0.02040621,0.007507451,0.01195919,1.005603,0.01447298,-0.04104866,-0.0001899096,0.0008000001,0.004320187,0.001851366,-0.0002809051,-0.03852942,192.168.1.6,10.136.42.164,5,stationary,2,2014-09-21 00:36:29.896,0,2014-09-21 00:36:16.523,0
2014-09-21 00:36:30.780,103,1.03,0,0,0,0,0,0,0,-1,0.01541138,0.04316711,-1.036011,0,0,0,0,0,-1,-0.01285987,0.007456318,0.01461277,1.005663,0.01448631,-0.04105359,-0.005191927,-0.0003879447,0.0004834334,0.0007546766,-0.0002553127,-0.03563064,192.168.1.6,10.136.42.164,5,stationary,2,2014-09-21 00:36:29.896,0,2014-09-21 00:36:16.523,0
2014-09-21 00:36:30.814,104,1.04,0,0,0,0,0,0,0,-1,0.01876831,0.04161072,-1.035217,0,0,0,0,0,-1,-0.01550892,0.00873144,0.02201049,1.005924,0.01449257,-0.04106889,-0.001500967,-0.004021674,0.005550246,0.001908093,-0.0004384539,-0.03668422,192.168.1.6,10.136.42.164,5,stationary,2,2014-09-21 00:36:29.896,0,2014-09-21 00:36:16.523,0
2014-09-21 00:36:30.856,105,1.05,0,0,0,0,0,0,0,-1,0.01530457,0.04205322,-1.035583,0,0,0,0,0,-1,-0.01680135,0.007539409,0.02322916,1.006055,0.01459906,-0.0410529,-0.0002933607,0.0008378111,0.01053499,0.004182073,0.0005693495,-0.03616631,192.168.1.6,10.136.42.164,5,stationary,2,2014-09-21 00:36:29.896,0,2014-09-21 00:36:16.523,0
2014-09-21 00:36:30.885,106,1.06,0,0,0,0,0,0,0,-1,0.0174408,0.04095459,-1.036285,0,0,0,0,0,-1,-0.01283111,0.005021656,0.01213443,1.006408,0.01464487,-0.04118384,-0.005253138,-0.0003642976,0.004212522,0.0002148736,0.0006826594,-0.03460071,192.168.1.6,10.136.42.164,5,stationary,2,2014-09-21 00:36:29.896,0,2014-09-21 00:36:16.523,0
2014-09-21 00:36:30.926,107,1.07,0,0,0,0,0,0,0,-1,0.01521301,0.04074097,-1.036133,0,0,0,0,0,-1,-0.01795423,0.008724515,0.01698298,1.006441,0.01461322,-0.04118107,0.002385264,-0.002871503,0.0006591121,0.002840483,-0.0002148425,-0.0372399,192.168.1.6,10.136.42.164,5,stationary,2,2014-09-21 00:36:29.896,0,2014-09-21 00:36:16.523,0
2014-09-21 00:36:30.951,108,1.08,0,0,0,0,0,0,0,-1,0.01521301,0.04074097,-1.036133,0,0,0,0,0,-1,-0.02173299,0.00390233,0.01442821,1.006481,0.01459104,-0.04113622,-0.001464948,-0.001606957,0.004300224,0.001031565,-0.001756941,-0.03999957,192.168.1.6,10.136.42.164,5,stationary,2,2014-09-21 00:36:29.896,0,2014-09-21 00:36:16.523,0
2014-09-21 00:36:30.992,109,1.09,0,0,0,0,0,0,0,-1,0.01617432,0.04298401,-1.03476,0,0,0,0,0,-1,-0.01921897,0.008735435,0.01695501,1.00681,0.01463504,-0.04112995,-0.001442673,-0.001613237,0.003057539,0.001353808,0.0004923632,-0.03862667,192.168.1.6,10.136.42.164,5,stationary,2,2014-09-21 00:36:29.896,0,2014-09-21 00:36:16.523,0
2014-09-21 00:36:31.026,110,1.1,0,0,0,0,0,0,0,-1,0.01731873,0.04154968,-1.035889,0,0,0,0,0,-1,-0.01920459,0.007518104,0.01571585,1.006858,0.01467295,-0.04112255,-0.005244304,0.0008472556,0.004209129,0.002261978,-0.0007514605,-0.03766561,192.168.1.6,10.136.42.164,5,stationary,2,2014-09-21 00:36:29.896,0,2014-09-21 00:36:16.523,0
2014-09-21 00:36:31.062,111,1.11,0,0,0,0,0,0,0,-1,0.01734924,0.04241943,-1.03595,0,0,0,0,0,-1,-0.01917023,0.009931194,0.01446549,1.00718,0.01474551,-0.04122537,-0.004013675,-0.001575821,0.005487627,0.0008620334,0.002319627,-0.03742677,192.168.1.6,10.136.42.164,5,stationary,2,2014-09-21 00:36:29.896,0,2014-09-21 00:36:16.523,0
2014-09-21 00:36:31.096,112,1.12,0,0,0,0,0,0,0,-1,0.01730347,0.03981018,-1.035629,0,0,0,0,0,-1,-0.02303315,0.00513777,0.01688231,1.007273,0.01471299,-0.04122972,-0.005368901,-0.002746144,0.01043502,0.001367547,-0.0009653548,-0.03625154,192.168.1.6,10.136.42.164,5,stationary,2,2014-09-21 00:36:29.896,0,2014-09-21 00:36:16.523,0
2014-09-21 00:36:31.126,113,1.13,0,0,0,0,0,0,0,-1,0.01513672,0.04064941,-1.035385,0,0,0,0,0,-1,-0.01416669,0.007481618,0.0170706,1.007473,0.01472063,-0.04135987,-0.005165118,-0.0003899623,-0.0007583604,0.0006123185,-0.0006071115,-0.03573823,192.168.1.6,10.136.42.164,5,stationary,2,2014-09-21 00:36:29.896,0,2014-09-21 00:36:16.523,0
2014-09-21 00:36:31.169,114,1.14,0,0,0,0,0,0,0,-1,0.01612854,0.04112244,-1.035248,0,0,0,0,0,-1,-0.02172633,0.00511247,0.01442448,1.007567,0.01475561,-0.04126865,0.002367565,0.0007765201,0.003134481,0.0003942088,-0.0006075244,-0.03634533,192.168.1.6,10.136.42.164,5,stationary,2,2014-09-21 00:36:29.896,0,2014-09-21 00:36:16.523,0
2014-09-21 00:36:31.196,115,1.15,0,0,0,0,0,0,0,-1,0.0174408,0.04257202,-1.034561,0,0,0,0,0,-1,-0.02174737,0.005119661,0.01566738,1.007598,0.01473975,-0.04124052,-0.006500505,-0.002775639,0.002780667,0.001401853,-0.0001063949,-0.03620661,192.168.1.6,10.136.42.164,5,stationary,2,2014-09-21 00:36:29.896,0,2014-09-21 00:36:16.523,0
2014-09-21 00:36:31.242,116,1.16,0,0,0,0,0,0,0,-1,0.01553345,0.03953552,-1.037003,0,0,0,0,0,-1,-0.01534726,0.007463775,0.01207104,1.007705,0.01479428,-0.0413315,-0.00264283,-0.002828842,-0.0008639838,0.001286404,-0.001021274,-0.03810326,192.168.1.6,10.136.42.164,5,stationary,2,2014-09-21 00:36:29.896,0,2014-09-21 00:36:16.523,0
2014-09-21 00:36:31.268,117,1.17,0,0,0,0,0,0,0,-1,0.01667786,0.04173279,-1.036133,0,0,0,0,0,-1,-0.01534726,0.007463775,0.01207104,1.007705,0.01479428,-0.0413315,-0.00264283,-0.002828842,-0.0008639838,0.001286404,-0.001021274,-0.03810326,192.168.1.6,10.136.42.164,5,stationary,2,2014-09-21 00:36:29.896,0,2014-09-21 00:36:16.523,0
2014-09-21 00:36:31.306,118,1.18,0,0,0,0,0,0,0,-1,0.01448059,0.04110718,-1.036575,0,0,0,0,0,-1,-0.01421436,0.002648247,0.01832841,1.0081,0.01480221,-0.04134,-0.006590206,-0.0003174822,0.0089881,0.0009580476,0.0003740399,-0.03859201,192.168.1.6,10.136.42.164,5,stationary,2,2014-09-21 00:36:29.896,0,2014-09-21 00:36:16.523,0
2014-09-21 00:36:31.343,119,1.19,0,0,0,0,0,0,0,-1,0.01582336,0.04174805,-1.036301,0,0,0,0,0,-1,-0.02051033,0.003905792,0.01694197,1.008178,0.01477981,-0.04140674,-0.002760709,-0.001574709,0.006589948,0.0007973611,0.002168939,-0.03616829,192.168.1.6,10.136.42.164,5,stationary,2,2014-09-21 00:36:29.896,0,2014-09-21 00:36:16.523,0
2014-09-21 00:36:31.375,120,1.2,0,0,0,0,0,0,0,-1,0.01672363,0.0425415,-1.035599,0,0,0,0,0,-1,-0.01922563,0.007525294,0.01695874,1.008376,0.01466967,-0.041477,-0.001353916,-0.0004141578,-0.0009417786,0.001044769,0.0004050104,-0.0371614,192.168.1.6,10.136.42.164,5,stationary,2,2014-09-21 00:36:29.896,0,2014-09-21 00:36:16.523,0
2014-09-21 00:36:31.422,121,1.21,0,0,0,0,0,0,0,-1,0.01663208,0.04092407,-1.036316,0,0,0,0,0,-1,-0.015396,0.006268016,0.01456057,1.008401,0.01469282,-0.04141498,0.003635572,-0.001646112,0.002902534,0.002669548,-0.001180973,-0.03696081,192.168.1.6,10.136.42.164,5,stationary,2,2014-09-21 00:36:29.896,0,2014-09-21 00:36:16.523,0
2014-09-21 00:36:31.465,122,1.22,0,0,0,0,0,0,0,-1,0.01574707,0.04074097,-1.034637,0,0,0,0,0,-1,-0.01419438,0.006278669,0.01831722,1.008645,0.01470571,-0.04146451,-0.005203317,0.0008513472,0.002699517,0.0001695203,-0.0005285571,-0.03616959,192.168.1.6,10.136.42.164,5,stationary,2,2014-09-21 00:36:29.896,0,2014-09-21 00:36:16.523,0
2014-09-21 00:36:31.500,123,1.23,0,0,0,0,0,0,0,-1,0.01602173,0.04115295,-1.036407,0,0,0,0,0,-1,-0.01535392,0.006253635,0.01207477,1.008786,0.01471145,-0.041457,0.001044285,-0.001601912,0.006575543,-9.561511e-05,-0.0003379524,-0.03708489,192.168.1.6,10.136.42.164,5,stationary,2,2014-09-21 00:36:29.896,0,2014-09-21 00:36:16.523,0
2014-09-21 00:36:31.546,124,1.24,0,0,0,0,0,0,0,-1,0.01594543,0.04031372,-1.035583,0,0,0,0,0,-1,-0.02039955,0.008717592,0.01195546,1.009125,0.01471424,-0.04142263,-0.004006755,-0.0003471801,0.006460164,0.001000207,0.0005356226,-0.03891456,192.168.1.6,10.136.42.164,5,stationary,2,2014-09-21 00:36:29.896,0,2014-09-21 00:36:16.523,0
2014-09-21 00:36:31.587,125,1.25,0,0,0,0,0,0,0,-1,0.01602173,0.04367065,-1.036118,0,0,0,0,0,-1,-0.01926664,0.003902064,0.01821283,1.009201,0.01468761,-0.04143885,-0.002755205,-0.002778472,0.00649561,-0.0002701762,0.0002905399,-0.03738897,192.168.1.6,10.136.42.164,5,stationary,2,2014-09-21 00:36:29.896,0,2014-09-21 00:36:16.523,0
2014-09-21 00:36:31.626,126,1.26,0,0,0,0,0,0,0,-1,0.01693726,0.04077148,-1.034927,0,0,0,0,0,-1,-0.01799525,0.005101285,0.01823706,1.009458,0.01469101,-0.04147271,-0.00147435,-0.002751761,0.006204418,0.0005504216,0.0008823217,-0.03685636,192.168.1.6,10.136.42.164,5,stationary,2,2014-09-21 00:36:29.896,0,2014-09-21 00:36:16.523,0
2014-09-21 00:36:31.661,127,1.27,0,0,0,0,0,0,0,-1,0.01644897,0.04037476,-1.036499,0,0,0,0,0,-1,-0.02311064,0.006376673,0.02185017,1.009526,0.01470462,-0.0415251,-0.002739148,-0.002740615,0.006176486,0.002276356,0.001745499,-0.03682822,192.168.1.6,10.136.42.164,5,stationary,2,2014-09-21 00:36:29.896,0,2014-09-21 00:36:16.523,0
2014-09-21 00:36:31.723,128,1.28,0,0,0,0,0,0,0,-1,0.01634216,0.04119873,-1.034637,0,0,0,0,0,-1,-0.02300545,0.00634072,0.01563569,1.010013,0.01480705,-0.04160095,-0.001430711,-0.002764567,0.003718938,0.001517946,3.702281e-05,-0.03713805,192.168.1.6,10.136.42.164,5,stationary,2,2014-09-21 00:36:29.896,0,2014-09-21 00:36:16.523,0
2014-09-21 00:36:31.788,129,1.29,0,0,0,0,0,0,0,-1,0.01634216,0.04122925,-1.03714,0,0,0,0,0,-1,-0.01672385,0.006300507,0.01826129,1.010371,0.01483477,-0.04169276,-0.001465337,-0.001539023,0.00620122,0.001291948,0.001303327,-0.03593684,192.168.1.6,10.136.42.164,5,stationary,2,2014-09-21 00:36:29.896,0,2014-09-21 00:36:16.523,0
2014-09-21 00:36:31.835,130,1.3,0,0,0,0,0,0,0,-1,0.01634216,0.04122925,-1.03714,0,0,0,0,0,-1,-0.01672385,0.006300507,0.01826129,1.010405,0.01479948,-0.0416773,-0.0001439869,-0.002781692,0.002504249,0.0001370098,3.704022e-05,-0.03675965,192.168.1.6,10.136.42.164,5,stationary,2,2014-09-21 00:36:29.896,0,2014-09-21 00:36:16.523,0
2014-09-21 00:36:31.884,131,1.31,0,0,0,0,0,0,0,-1,0.01768494,0.04116821,-1.037674,0,0,0,0,0,-1,-0.02041286,0.006297311,0.01196292,1.010677,0.01474944,-0.04182829,-0.003943822,-0.003957951,0.002424326,0.001758751,0.0002218721,-0.03594124,192.168.1.6,10.136.42.164,5,stationary,2,2014-09-21 00:36:29.896,0,2014-09-21 00:36:16.523,0
2014-09-21 00:36:31.922,132,1.32,0,0,0,0,0,0,0,-1,0.01739502,0.04185486,-1.037659,0,0,0,0,0,-1,-0.02041286,0.006297311,0.01196292,1.010677,0.01474944,-0.04182829,-0.003943822,-0.003957951,0.002424326,0.001758751,0.0002218721,-0.03594124,192.168.1.6,10.136.42.164,5,stationary,2,2014-09-21 00:36:29.896,0,2014-09-21 00:36:16.523,0
2014-09-21 00:36:31.981,133,1.33,0,0,0,0,0,0,0,-1,0.01737976,0.04270935,-1.03804,0,0,0,0,0,-1,-0.01174241,0.007495733,0.02334101,1.010938,0.01481588,-0.04188764,-0.001483757,-0.001529127,0.007444659,0.001539821,5.576296e-05,-0.03428149,192.168.1.6,10.136.42.164,5,stationary,2,2014-09-21 00:36:29.896,0,2014-09-21 00:36:16.523,0
2014-09-21 00:36:32.024,134,1.34,0,0,0,0,0,0,0,-1,0.01560974,0.04075623,-1.03624,0,0,0,0,0,-1,-0.0179055,0.009920275,0.01449346,1.011475,0.01487077,-0.04188092,-0.002662824,-0.001546287,0.002445344,0.001408688,0.001283174,-0.03797465,192.168.1.6,10.136.42.164,5,stationary,2,2014-09-21 00:36:29.896,0,2014-09-21 00:36:16.523,0
2014-09-21 00:36:32.067,135,1.35,0,0,0,0,0,0,0,-1,0.01690674,0.04328918,-1.036255,0,0,0,0,0,-1,-0.01413233,0.009894709,0.01582024,1.011515,0.01488164,-0.04192638,-0.005235275,0.002127609,0.006106955,0.0009400914,9.335161e-05,-0.03877018,192.168.1.6,10.136.42.164,5,stationary,2,2014-09-21 00:36:29.896,0,2014-09-21 00:36:16.523,0
2014-09-21 00:36:32.114,136,1.36,0,0,0,0,0,0,0,-1,0.01716614,0.04466248,-1.034897,0,0,0,0,0,-1,-0.01793319,0.008717326,0.01574008,1.011904,0.01501985,-0.04193615,-0.003954869,0.0008998195,0.004895962,0.0007257292,0.0006176479,-0.03825385,192.168.1.6,10.136.42.164,5,stationary,2,2014-09-21 00:36:29.896,0,2014-09-21 00:36:16.523,0
2014-09-21 00:36:32.149,137,1.37,0,0,0,0,0,0,0,-1,0.01622009,0.04417419,-1.037476,0,0,0,0,0,-1,-0.01793319,0.008717326,0.01574008,1.011904,0.01501985,-0.04193615,-0.003954869,0.0008998195,0.004895962,0.0007257292,0.0006176479,-0.03825385,192.168.1.6,10.136.42.164,5,stationary,2,2014-09-21 00:36:29.896,0,2014-09-21 00:36:16.523,0
2014-09-21 00:36:32.194,138,1.38,0,0,0,0,0,0,0,-1,0.01620483,0.04223633,-1.035873,0,0,0,0,0,-1,-0.01919793,0.008728244,0.01571212,1.012208,0.01509044,-0.04213732,-0.007698694,-0.001508359,0.001091073,6.024827e-05,0.0008591616,-0.03753094,192.168.1.6,10.136.42.164,5,stationary,2,2014-09-21 00:36:29.896,0,2014-09-21 00:36:16.523,0
2014-09-21 00:36:32.231,139,1.39,0,0,0,0,0,0,0,-1,0.01620483,0.04223633,-1.035873,0,0,0,0,0,-1,-0.01672385,0.006300507,0.01826129,1.012248,0.01504859,-0.04214012,-0.002660476,-0.001544954,0.002445841,-0.0002794149,-0.0008831455,-0.03960563,192.168.1.6,10.136.42.164,5,stationary,2,2014-09-21 00:36:29.896,0,2014-09-21 00:36:16.523,0
2014-09-21 00:36:32.276,140,1.4,0,0,0,0,0,0,0,-1,0.01705933,0.04133606,-1.037476,0,0,0,0,0,-1,-0.01531957,0.008666725,0.01082442,1.012659,0.01502415,-0.04207906,-0.002637941,-0.001551448,0.001203192,0.0001111708,-0.001142568,-0.03839725,192.168.1.6,10.136.42.164,5,stationary,2,2014-09-21 00:36:29.896,0,2014-09-21 00:36:16.523,0
2014-09-21 00:36:32.316,141,1.41,0,0,0,0,0,0,0,-1,0.0163269,0.04185486,-1.036896,0,0,0,0,0,-1,-0.01918355,0.007510913,0.01447295,1.012783,0.01500841,-0.04214371,-0.005222978,-0.0002970728,0.004872415,0.002125836,0.001692008,-0.03591255,192.168.1.6,10.136.42.164,5,stationary,2,2014-09-21 00:36:29.896,0,2014-09-21 00:36:16.523,0
2014-09-21 00:36:32.376,142,1.42,0,0,0,0,0,0,0,-1,0.01417542,0.04197693,-1.036362,0,0,0,0,0,-1,-0.01413127,0.006257097,0.01458853,1.012823,0.01501236,-0.04218036,-0.00515985,-0.0003185793,0.001143752,0.0009317345,0.0012434,-0.03811142,192.168.1.6,10.136.42.164,5,stationary,2,2014-09-21 00:36:29.896,0,2014-09-21 00:36:16.523,0
2014-09-21 00:36:32.408,143,1.43,0,0,0,0,0,0,0,-1,0.01603699,0.04324341,-1.037003,0,0,0,0,0,-1,-0.01541038,0.007485347,0.01579974,1.01307,0.01492365,-0.04230351,-0.0026508,-0.0003330732,0.00244275,0.0005321548,2.172336e-05,-0.03840521,192.168.1.6,10.136.42.164,5,stationary,2,2014-09-21 00:36:29.896,0,2014-09-21 00:36:16.523,0
2014-09-21 00:36:32.453,144,1.44,0,0,0,0,0,0,0,-1,0.01506042,0.04258728,-1.038025,0,0,0,0,0,-1,-0.01801735,0.008746088,0.02071167,1.013091,0.01490835,-0.04231481,-0.0001422199,-0.0003475354,0.003741635,0.001142529,0.0009412297,-0.03800873,192.168.1.6,10.136.42.164,5,stationary,2,2014-09-21 00:36:29.896,0,2014-09-21 00:36:16.523,0
2014-09-21 00:36:32.482,145,1.45,0,0,0,0,0,0,0,-1,0.01730347,0.0413208,-1.036911,0,0,0,0,0,-1,-0.02059449,0.003934554,0.02191355,1.0134,0.01489584,-0.04227831,-0.002656048,-0.001542725,0.002446718,0.000941383,-0.001997769,-0.03754923,192.168.1.6,10.136.42.164,5,stationary,2,2014-09-21 00:36:29.896,0,2014-09-21 00:36:16.523,0
2014-09-21 00:36:32.527,146,1.46,0,0,0,0,0,0,0,-1,0.01699829,0.04173279,-1.037201,0,0,0,0,0,-1,-0.01554327,0.00631835,0.02326085,1.013561,0.01489072,-0.04232483,-0.002718722,-0.001520884,0.00617548,0.002426631,-0.0009913952,-0.03791734,192.168.1.6,10.136.42.164,5,stationary,2,2014-09-21 00:36:29.896,0,2014-09-21 00:36:16.523,0
2014-09-21 00:36:32.554,147,1.47,0,0,0,0,0,0,0,-1,0.01699829,0.04173279,-1.037201,0,0,0,0,0,-1,-0.01554327,0.00631835,0.02326085,1.013621,0.01485958,-0.04232023,-0.002731821,-0.003941193,0.006182953,0.0003215096,-8.65281e-05,-0.03800823,192.168.1.6,10.136.42.164,5,stationary,2,2014-09-21 00:36:29.896,0,2014-09-21 00:36:16.523,0
2014-09-21 00:36:32.597,148,1.48,0,0,0,0,0,0,0,-1,0.01419067,0.04011536,-1.037384,0,0,0,0,0,-1,-0.01665408,0.007489075,0.01452888,1.014124,0.01496268,-0.04216949,0.003572146,-0.0003493367,0.008797644,0.002598787,-0.001629647,-0.03811022,192.168.1.6,10.136.42.164,5,stationary,2,2014-09-21 00:36:29.896,0,2014-09-21 00:36:16.523,0
2014-09-21 00:36:32.626,149,1.49,0,0,0,0,0,0,0,-1,0.01716614,0.04237366,-1.035355,0,0,0,0,0,-1,-0.01665408,0.007489075,0.01452888,1.014158,0.01496531,-0.04219726,-0.003917818,-0.001529741,0.002419136,0.001695911,0.001958937,-0.03718064,192.168.1.6,10.136.42.164,5,stationary,2,2014-09-21 00:36:29.896,0,2014-09-21 00:36:16.523,0
2014-09-21 00:36:32.661,150,1.5,0,0,0,0,0,0,0,-1,0.0186615,0.04281616,-1.039642,0,0,0,0,0,-1,-0.02052578,0.008760734,0.01941285,1.014362,0.01495172,-0.0421018,0.004917898,0.002084934,0.006009242,0.003952467,-0.00311842,-0.03693227,192.168.1.6,10.136.42.164,5,stationary,2,2014-09-21 00:36:29.896,0,2014-09-21 00:36:16.523,0
2014-09-21 00:36:32.697,151,1.51,0,0,0,0,0,0,0,-1,0.01463318,0.03909302,-1.032944,0,0,0,0,0,-1,-0.0217772,0.01119193,0.01937743,1.014418,0.01497243,-0.04206606,-0.005170901,-0.0002623966,0.003307233,0.0002696459,-0.00109907,-0.03915886,192.168.1.6,10.136.42.164,5,stationary,2,2014-09-21 00:36:29.896,0,2014-09-21 00:36:16.523,0
2014-09-21 00:36:32.725,152,1.52,0,0,0,0,0,0,0,-1,0.01747131,0.04252625,-1.037766,0,0,0,0,0,-1,-0.0178557,0.007478422,0.01077222,1.01474,0.01509745,-0.04214258,-0.006469931,0.0009741669,0.005761538,0.002799825,-0.001068712,-0.04151382,192.168.1.6,10.136.42.164,5,stationary,2,2014-09-21 00:36:29.896,0,2014-09-21 00:36:16.523,0
2014-09-21 00:36:32.768,153,1.53,0,0,0,0,0,0,0,-1,0.01634216,0.04290771,-1.036499,0,0,0,0,0,-1,-0.01669616,0.007503456,0.01701467,1.014852,0.0151132,-0.04204622,-0.001366997,-0.002720964,0.002155986,0.0007546109,-0.002849261,-0.03868712,192.168.1.6,10.136.42.164,5,stationary,2,2014-09-21 00:36:29.896,0,2014-09-21 00:36:16.523,0
2014-09-21 00:36:32.795,154,1.54,0,0,0,0,0,0,0,-1,0.01638794,0.03979492,-1.035156,0,0,0,0,0,-1,-0.01160286,0.009872871,0.01587617,1.015021,0.0151082,-0.04202509,-0.001395408,-0.0002860497,0.004634391,0.001247879,0.0008949891,-0.03749597,192.168.1.6,10.136.42.164,5,stationary,2,2014-09-21 00:36:29.896,0,2014-09-21 00:36:16.523,0
2014-09-21 00:36:32.841,155,1.55,0,0,0,0,0,0,0,-1,0.0165863,0.04444885,-1.037262,0,0,0,0,0,-1,-0.02045494,0.006311692,0.01444871,1.015203,0.0150767,-0.04186874,-0.001401109,-0.00149595,0.00463827,-3.300966e-05,0.001158019,-0.03913689,192.168.1.6,10.136.42.164,5,stationary,2,2014-09-21 00:36:29.896,0,2014-09-21 00:36:16.523,0
2014-09-21 00:36:32.867,156,1.56,0,0,0,0,0,0,0,-1,0.0165863,0.04444885,-1.037262,0,0,0,0,0,-1,-0.01668843,0.005075985,0.01577923,1.015213,0.0150848,-0.04191571,-0.005118905,0.0009356219,0.0008182602,0.00124067,0.001477301,-0.0376894,192.168.1.6,10.136.42.164,5,stationary,2,2014-09-21 00:36:29.896,0,2014-09-21 00:36:16.523,0
2014-09-21 00:36:32.905,157,1.57,0,0,0,0,0,0,0,-1,0.01687622,0.04307556,-1.037033,0,0,0,0,0,-1,-0.02058783,0.005144695,0.02190983,1.015448,0.01504001,-0.04190263,-0.005117632,0.0009361286,0.0008184633,-5.736948e-05,-0.0002033601,-0.03846637,192.168.1.6,10.136.42.164,5,stationary,2,2014-09-21 00:36:29.896,0,2014-09-21 00:36:16.523,0
2014-09-21 00:36:32.940,158,1.58,0,0,0,0,0,0,0,-1,0.01560974,0.04225159,-1.036102,0,0,0,0,0,-1,-0.01796089,0.007514375,0.01698671,1.015522,0.01501482,-0.04197405,-0.005284846,-0.002643675,0.009529991,0.001875188,0.001113842,-0.03802648,192.168.1.6,10.136.42.164,5,stationary,2,2014-09-21 00:36:29.896,0,2014-09-21 00:36:16.523,0
2014-09-21 00:36:32.982,159,1.59,0,0,0,0,0,0,0,-1,0.01721191,0.04275513,-1.036194,0,0,0,0,0,-1,-0.0167172,0.007510647,0.01825757,1.015823,0.015097,-0.04196229,0.002401832,-0.0003169284,0.004718883,0.002586542,-0.00120901,-0.03740162,192.168.1.6,10.136.42.164,5,stationary,2,2014-09-21 00:36:29.896,0,2014-09-21 00:36:16.523,0
2014-09-21 00:36:33.016,160,1.6,0,0,0,0,0,0,0,-1,0.01643372,0.04142761,-1.036575,0,0,0,0,0,-1,-0.01800297,0.007528756,0.0194725,1.015985,0.01514413,-0.04198563,-0.001413202,-0.0002765551,0.005877961,0.002081708,0.0007818289,-0.03718968,192.168.1.6,10.136.42.164,5,stationary,2,2014-09-21 00:36:29.896,0,2014-09-21 00:36:16.523,0
2014-09-21 00:36:33.043,161,1.61,0,0,0,0,0,0,0,-1,0.01751709,0.04388428,-1.037292,0,0,0,0,0,-1,-0.0154237,0.005065066,0.01580719,1.016353,0.01518711,-0.04198459,-0.002676905,-0.0002647371,0.005850193,0.002206619,0.0009964912,-0.03543553,192.168.1.6,10.136.42.164,5,stationary,2,2014-09-21 00:36:29.896,0,2014-09-21 00:36:16.523,0
2014-09-21 00:36:33.088,162,1.62,0,0,0,0,0,0,0,-1,0.01570129,0.0435791,-1.03511,0,0,0,0,0,-1,-0.02176175,0.006336992,0.01690655,1.016488,0.01516571,-0.042044,-0.0001186351,-0.002720892,0.003427832,0.002365365,0.001852669,-0.03829109,192.168.1.6,10.136.42.164,5,stationary,2,2014-09-21 00:36:29.896,0,2014-09-21 00:36:16.523,0
2014-09-21 00:36:33.112,163,1.63,0,0,0,0,0,0,0,-1,0.01570129,0.0435791,-1.03511,0,0,0,0,0,-1,-0.02176175,0.006336992,0.01690655,1.016539,0.01517911,-0.04204336,-0.002647832,-0.002698745,0.003371948,0.002718192,-0.0007559472,-0.0364297,192.168.1.6,10.136.42.164,5,stationary,2,2014-09-21 00:36:29.896,0,2014-09-21 00:36:16.523,0
2014-09-21 00:36:33.158,164,1.64,0,0,0,0,0,0,0,-1,0.01690674,0.04348755,-1.033646,0,0,0,0,0,-1,-0.01800297,0.007528756,0.0194725,1.016787,0.01515107,-0.04217058,-0.006384492,-0.003897154,-0.0004366903,0.0008084181,0.0004291929,-0.03771637,192.168.1.6,10.136.42.164,5,stationary,2,2014-09-21 00:36:29.896,0,2014-09-21 00:36:16.523,0
2014-09-21 00:36:33.183,165,1.65,0,0,0,0,0,0,0,-1,0.01567078,0.04263306,-1.036713,0,0,0,0,0,-1,-0.01921684,0.001460211,0.01449159,1.016784,0.0151155,-0.04216311,-3.967815e-05,-0.003958918,-0.001539742,0.0006150611,0.0006197629,-0.03715094,192.168.1.6,10.136.42.164,5,stationary,2,2014-09-21 00:36:29.896,0,2014-09-21 00:36:16.523,0
2014-09-21 00:36:33.226,166,1.66,0,0,0,0,0,0,0,-1,0.01574707,0.04318237,-1.036911,0,0,0,0,0,-1,-0.01927436,0.006329535,0.01944827,1.017093,0.01505932,-0.04213002,0.002426825,-0.0003211221,0.003476789,-0.0003969552,0.0002255863,-0.03443263,192.168.1.6,10.136.42.164,5,stationary,2,2014-09-21 00:36:29.896,0,2014-09-21 00:36:16.523,0
2014-09-21 00:36:33.263,167,1.67,0,0,0,0,0,0,0,-1,0.01683044,0.04232788,-1.035538,0,0,0,0,0,-1,-0.02040514,0.003869839,0.01072748,1.017171,0.01505188,-0.04210564,-0.001472263,-0.0002522339,0.009607425,0.001685665,-0.00100128,-0.03504185,192.168.1.6,10.136.42.164,5,stationary,2,2014-09-21 00:36:29.896,0,2014-09-21 00:36:16.523,0
2014-09-21 00:36:33.298,168,1.68,0,0,0,0,0,0,0,-1,0.01625061,0.04100037,-1.03569,0,0,0,0,0,-1,-0.01162283,0.006242449,0.01588735,1.017448,0.01506248,-0.04219976,-0.002729387,0.0009697567,0.009575928,0.001354692,0.0005831505,-0.03558003,192.168.1.6,10.136.42.164,5,stationary,2,2014-09-21 00:36:29.896,0,2014-09-21 00:36:16.523,0
2014-09-21 00:36:33.333,169,1.69,0,0,0,0,0,0,0,-1,0.01564026,0.04200745,-1.035095,0,0,0,0,0,-1,-0.02049036,0.007536213,0.01693078,1.017576,0.0151065,-0.04219711,0.003686624,-0.001540642,0.003508789,0.001158134,-0.001184221,-0.03669447,192.168.1.6,10.136.42.164,5,stationary,2,2014-09-21 00:36:29.896,0,2014-09-21 00:36:16.523,0
2014-09-21 00:36:33.358,170,1.7,0,0,0,0,0,0,0,-1,0.01565552,0.04330444,-1.036942,0,0,0,0,0,-1,-0.02049036,0.007536213,0.01693078,1.017576,0.0151065,-0.04219711,0.003686624,-0.001540642,0.003508789,0.001158134,-0.001184221,-0.03669447,192.168.1.6,10.136.42.164,5,stationary,2,2014-09-21 00:36:29.896,0,2014-09-21 00:36:16.523,0
2014-09-21 00:36:33.398,171,1.71,0,0,0,0,0,0,0,-1,0.01853943,0.04269409,-1.03421,0,0,0,0,0,-1,-0.01798859,0.006311425,0.01823333,1.018067,0.01509678,-0.0421606,-0.0051654,-0.001462951,0.003313296,0.00132041,0.001995561,-0.03861539,192.168.1.6,10.136.42.164,5,stationary,2,2014-09-21 00:36:29.896,0,2014-09-21 00:36:16.523,0
2014-09-21 00:36:33.427,172,1.72,0,0,0,0,0,0,0,-1,0.0163269,0.04124451,-1.035156,0,0,0,0,0,-1,-0.01798859,0.006311425,0.01823333,1.018067,0.01509678,-0.0421606,-0.0051654,-0.001462951,0.003313296,0.00132041,0.001995561,-0.03861539,192.168.1.6,10.136.42.164,5,stationary,2,2014-09-21 00:36:29.896,0,2014-09-21 00:36:16.523,0
2014-09-21 00:36:33.461,173,1.73,0,0,0,0,0,0,0,-1,0.01721191,0.04290771,-1.03624,0,0,0,0,0,-1,-0.01798086,0.003883954,0.01699789,1.018332,0.0151231,-0.04218351,-0.00269092,-0.0002518453,0.007094427,0.0006074841,-0.0003008818,-0.03614483,192.168.1.6,10.136.42.164,5,stationary,2,2014-09-21 00:36:29.896,0,2014-09-21 00:36:16.523,0
2014-09-21 00:36:33.494,174,1.74,0,0,0,0,0,0,0,-1,0.01647949,0.04304504,-1.037888,0,0,0,0,0,-1,-0.01668843,0.005075985,0.01577923,1.018467,0.01511191,-0.04217428,-0.002668348,-0.003896241,0.004619895,0.002114019,0.0007459334,-0.03724291,192.168.1.6,10.136.42.164,5,stationary,2,2014-09-21 00:36:29.896,0,2014-09-21 00:36:16.523,0
2014-09-21 00:36:33.520,175,1.75,0,0,0,0,0,0,0,-1,0.01591492,0.04289246,-1.036621,0,0,0,0,0,-1,-0.02176841,0.005126852,0.01691027,1.018689,0.01505032,-0.04219631,-0.001494846,-0.001450637,0.01085501,0.0008938212,-0.002327833,-0.03638842,192.168.1.6,10.136.42.164,5,stationary,2,2014-09-21 00:36:29.896,0,2014-09-21 00:36:16.523,0
2014-09-21 00:36:33.566,176,1.76,0,0,0,0,0,0,0,-1,0.01716614,0.04148865,-1.037079,0,0,0,0,0,-1,-0.02428457,0.00756897,0.01684689,1.018854,0.01503881,-0.04222281,-0.0001452895,-0.001489754,0.005911504,0.0006154213,-0.001713438,-0.03872396,192.168.1.6,10.136.42.164,5,stationary,2,2014-09-21 00:36:29.896,0,2014-09-21 00:36:16.523,0
2014-09-21 00:36:33.593,177,1.77,0,0,0,0,0,0,0,-1,0.01716614,0.04148865,-1.037079,0,0,0,0,0,-1,-0.02428457,0.00756897,0.01684689,1.018854,0.01503881,-0.04222281,-0.0001452895,-0.001489754,0.005911504,0.0006154213,-0.001713438,-0.03872396,192.168.1.6,10.136.42.164,5,stationary,2,2014-09-21 00:36:29.896,0,2014-09-21 00:36:16.523,0
2014-09-21 00:36:33.631,178,1.78,0,0,0,0,0,0,0,-1,0.0164032,0.04338074,-1.037476,0,0,0,0,0,-1,-0.02171968,0.006322611,0.01442075,1.019407,0.01511768,-0.04233281,-0.005206988,-0.0001824441,0.007973157,0.001726885,0.001716695,-0.03784478,192.168.1.6,10.136.42.164,5,stationary,2,2014-09-21 00:36:29.896,0,2014-09-21 00:36:16.523,0
2014-09-21 00:36:33.666,179,1.79,0,0,0,0,0,0,0,-1,0.01753235,0.04400635,-1.037857,0,0,0,0,0,-1,-0.02171968,0.006322611,0.01442075,1.019407,0.01511768,-0.04233281,-0.005206988,-0.0001824441,0.007973157,0.001726885,0.001716695,-0.03784478,192.168.1.6,10.136.42.164,5,stationary,2,2014-09-21 00:36:29.896,0,2014-09-21 00:36:16.523,0
2014-09-21 00:36:33.706,180,1.8,0,0,0,0,0,0,0,-1,0.01811218,0.04133606,-1.037827,0,0,0,0,0,-1,-0.01407587,0.008662997,0.01209528,1.019766,0.01519646,-0.04246811,0.002480952,-0.001492749,0.001930445,0.0006564463,-0.0004631609,-0.03562393,192.168.1.6,10.136.42.164,5,stationary,2,2014-09-21 00:36:29.896,0,2014-09-21 00:36:16.523,0
