time,timestamp,recordtime,lat,long,alt,speed,course,verticalAccuracy,horizontalAccuracy,locTimeStamp,accelerationX,accelerationY,accelerationZ,HeadingX,HeadingY,HeadingZ,TrueHeading,MagneticHeading,HeadingAccuracy,RotationX,RotationY,RotationZ,motionYaw,motionRoll,motionPitch,motionRotationRateX,motionRotationRateY,motionRotationRateZ,motionUserAccelerationX,motionUserAccelerationY,motionUserAccelerationZ,en0,pdp_ip0,DeviceOrientation,Activity,Activity Confidence,Activity Start,Steps,Last Step Date,State
2014-09-21 00:27:51.620,1,0.01,0,0,0,0,0,0,0,-1,-0.02209473,0.02580261,-1.028763,0,0,0,0,0,-1,-0.02322143,0.001564873,0.02683667,-0.4438305,-0.02404123,-0.02536691,0.003759718,-0.0009125876,0.00136021,0.001005665,-0.002033499,-0.02581813,192.168.1.6,10.136.42.164,5,stationary,2,2014-09-21 00:27:52.066,0,2014-09-21 00:18:59.523,0
2014-09-21 00:27:51.654,2,0.02,0,0,0,0,0,0,0,-1,-0.02825928,0.02529907,-1.014801,0,0,0,0,0,-1,-0.02060328,0.009999637,0.02438071,-0.4437539,-0.02409285,-0.02540096,-0.005149585,0.0003955214,0.004889498,0.001988023,0.0004043849,-0.02937553,192.168.1.6,10.136.42.164,5,stationary,2,2014-09-21 00:27:52.066,0,2014-09-21 00:18:59.523,0
2014-09-21 00:27:51.676,3,0.03,0,0,0,0,0,0,0,-1,-0.02522278,0.02455139,-1.020752,0,0,0,0,0,-1,-0.02445288,0.007626494,0.02679007,-0.4436979,-0.02407411,-0.02536489,-0.003801972,0.00399331,0.001177682,-0.004195232,-6.31014e-05,-0.01541237,192.168.1.6,10.136.42.164,5,stationary,2,2014-09-21 00:27:52.066,0,2014-09-21 00:18:59.523,0
2014-09-21 00:27:51.707,4,0.04,0,0,0,0,0,0,0,-1,-0.02510071,0.02304077,-1.023804,0,0,0,0,0,-1,-0.01677259,0.005104747,0.02075082,-0.4435775,-0.02405141,-0.02545802,0.002557539,0.002712363,0.002545475,-0.0003422474,-0.000644475,-0.02496619,192.168.1.6,10.136.42.164,5,stationary,2,2014-09-21 00:27:52.066,0,2014-09-21 00:18:59.523,0
2014-09-21 00:27:51.740,5,0.05,0,0,0,0,0,0,0,-1,-0.02429199,0.02407837,-1.021652,0,0,0,0,0,-1,-0.015551,0.008745821,0.02449629,-0.443527,-0.02404705,-0.02527223,0.005095127,0.0002627986,0.001366093,-0.002009702,-0.0006876324,-0.02433577,192.168.1.6,10.136.42.164,5,stationary,2,2014-09-21 00:27:52.066,0,2014-09-21 00:18:59.523,0
2014-09-21 00:27:51.763,6,0.06,0,0,0,0,0,0,0,-1,-0.02294922,0.02375793,-1.022079,0,0,0,0,0,-1,-0.015551,0.008745821,0.02449629,-0.443527,-0.02404705,-0.02527223,0.005095127,0.0002627986,0.001366093,-0.002009702,-0.0006876324,-0.02433577,192.168.1.6,10.136.42.164,5,stationary,2,2014-09-21 00:27:52.066,0,2014-09-21 00:18:59.523,0
2014-09-21 00:27:51.791,7,0.07,0,0,0,0,0,0,0,-1,-0.02261353,0.02452087,-1.023376,0,0,0,0,0,-1,-0.02449389,0.004003264,0.02804415,-0.4434615,-0.02397598,-0.02515137,-0.003743851,0.002759649,0.001163097,-0.002019616,-0.001100867,-0.02254574,192.168.1.6,10.136.42.164,5,stationary,2,2014-09-21 00:27:52.066,0,2014-09-21 00:18:59.523,0
2014-09-21 00:27:51.824,8,0.08,0,0,0,0,0,0,0,-1,-0.02386475,0.02320862,-1.022751,0,0,0,0,0,-1,-0.02062991,0.005159076,0.02439562,-0.4433727,-0.02395972,-0.02519038,-0.006307201,0.0003686537,0.002357642,0.001336299,-0.0006668409,-0.02398065,192.168.1.6,10.136.42.164,5,stationary,2,2014-09-21 00:27:52.066,0,2014-09-21 00:18:59.523,0
2014-09-21 00:27:51.848,9,0.09,0,0,0,0,0,0,0,-1,-0.02386475,0.02320862,-1.022751,0,0,0,0,0,-1,-0.02062991,0.005159076,0.02439562,-0.4433727,-0.02395972,-0.02519038,-0.006307201,0.0003686537,0.002357642,0.001336299,-0.0006668409,-0.02398065,192.168.1.6,10.136.42.164,5,stationary,2,2014-09-21 00:27:52.066,0,2014-09-21 00:18:59.523,0
2014-09-21 00:27:51.884,10,0.09999999,0,0,0,0,0,0,0,-1,-0.0221405,0.0249939,-1.02565,0,0,0,0,0,-1,-0.02577967,0.004021373,0.02925909,-0.4431794,-0.02404309,-0.02524675,-0.00371146,-0.002102548,0.001161362,-0.0005945791,-0.001165696,-0.02734101,192.168.1.6,10.136.42.164,5,stationary,2,2014-09-21 00:27:52.066,0,2014-09-21 00:18:59.523,0
2014-09-21 00:27:51.913,11,0.11,0,0,0,0,0,0,0,-1,-0.02302551,0.02459717,-1.025482,0,0,0,0,0,-1,-0.02576422,-0.0008335694,0.0267882,-0.4430805,-0.02399387,-0.0252407,-0.008854222,-0.002029748,0.006021195,0.0008668594,-6.101754e-05,-0.02888081,192.168.1.6,10.136.42.164,5,stationary,2,2014-09-21 00:27:52.066,0,2014-09-21 00:18:59.523,0
2014-09-21 00:27:51.945,12,0.12,0,0,0,0,0,0,0,-1,-0.0231781,0.02601624,-1.027969,0,0,0,0,0,-1,-0.02190237,0.007597466,0.0256031,-0.4429258,-0.02405166,-0.02545498,-0.005072692,-0.00448191,0.006112812,-0.0006166486,-0.0008550612,-0.02562225,192.168.1.6,10.136.42.164,5,stationary,2,2014-09-21 00:27:52.066,0,2014-09-21 00:18:59.523,0
2014-09-21 00:27:51.981,13,0.13,0,0,0,0,0,0,0,-1,-0.02441406,0.02578735,-1.025253,0,0,0,0,0,-1,-0.02447285,0.003996073,0.02680125,-0.4428643,-0.02401027,-0.02558166,-0.00373263,0.001543661,0.003636417,0.0008220082,0.0004373678,-0.02858469,192.168.1.6,10.136.42.164,5,stationary,2,2014-09-21 00:27:52.066,0,2014-09-21 00:18:59.523,0
2014-09-21 00:27:52.004,14,0.14,0,0,0,0,0,0,0,-1,-0.02497864,0.02423096,-1.026642,0,0,0,0,0,-1,-0.02444409,0.001561411,0.02432292,-0.4428268,-0.02403068,-0.02560123,-0.007546591,-0.002053947,0.003563757,-0.0001799471,-0.002008344,-0.02815844,192.168.1.6,10.136.42.164,5,stationary,2,2014-09-21 00:27:52.066,0,2014-09-21 00:18:59.523,0
2014-09-21 00:27:52.035,15,0.15,0,0,0,0,0,0,0,-1,-0.02510071,0.02482605,-1.024139,0,0,0,0,0,-1,-0.01687885,0.008778311,0.02819702,-0.4425927,-0.02419499,-0.02576172,0.003916046,-0.0009703456,0.002552106,-0.001007657,0.0001200375,-0.02682374,192.168.1.6,10.136.42.164,5,stationary,2,2014-09-21 00:27:52.066,0,2014-09-21 00:18:59.523,0
2014-09-21 00:27:52.068,16,0.16,0,0,0,0,0,0,0,-1,-0.02346802,0.02571106,-1.028763,0,0,0,0,0,-1,-0.01817794,0.00637614,0.02941941,-0.442493,-0.02417014,-0.02569424,-0.00502759,-0.002075283,0.007331772,-0.000528914,-0.002070808,-0.02735546,192.168.1.6,10.136.42.164,5,stationary,2,2014-09-21 00:27:52.066,0,2014-09-21 00:18:59.523,0
2014-09-21 00:27:52.090,17,0.17,0,0,0,0,0,0,0,-1,-0.02346802,0.02571106,-1.028763,0,0,0,0,0,-1,-0.0206664,0.01002121,0.0281094,-0.442493,-0.02417014,-0.02569424,-0.00502759,-0.002075283,0.007331772,-0.000528914,-0.002070808,-0.02735546,192.168.1.6,10.136.42.164,5,stationary,2,2014-09-21 00:27:52.066,0,2014-09-21 00:18:59.523,0
2014-09-21 00:27:52.129,18,0.18,0,0,0,0,0,0,0,-1,-0.02198792,0.02494812,-1.02919,0,0,0,0,0,-1,-0.01812254,0.00878204,0.02692616,-0.4421346,-0.02403065,-0.02574148,-0.001143068,0.002711177,0.003672342,0.001391597,-0.001767083,-0.02898601,192.168.1.6,10.136.42.164,5,stationary,2,2014-09-21 00:27:52.066,0,2014-09-21 00:18:59.523,0
2014-09-21 00:27:52.154,19,0.19,0,0,0,0,0,0,0,-1,-0.02357483,0.02426147,-1.031113,0,0,0,0,0,-1,-0.02573093,0.005217133,0.02676956,-0.4420484,-0.02391654,-0.02573102,-0.003622507,0.0002915703,-0.0001047198,0.0008503118,-0.0009784265,-0.02850998,192.168.1.6,10.136.42.164,5,stationary,2,2014-09-21 00:27:52.066,0,2014-09-21 00:18:59.523,0
2014-09-21 00:27:52.185,20,0.2,0,0,0,0,0,0,0,-1,-0.02105713,0.02653503,-1.028259,0,0,0,0,0,-1,-0.01812148,0.005144428,0.02569444,-0.4418736,-0.02375884,-0.0259447,-0.007460619,-0.0008726114,0.004769614,0.00191328,0.0005016891,-0.0295646,192.168.1.6,10.136.42.164,5,stationary,2,2014-09-21 00:27:52.066,0,2014-09-21 00:18:59.523,0
2014-09-21 00:27:52.220,21,0.21,0,0,0,0,0,0,0,-1,-0.02386475,0.02531433,-1.030899,0,0,0,0,0,-1,-0.01688551,0.007568171,0.02820075,-0.4418417,-0.02375385,-0.02596197,-0.001094811,-0.0009414954,0.002423686,0.0001687811,-0.0002327405,-0.03092296,192.168.1.6,10.136.42.164,5,stationary,2,2014-09-21 00:27:52.066,0,2014-09-21 00:18:59.523,0
2014-09-21 00:27:52.241,22,0.22,0,0,0,0,0,0,0,-1,-0.02258301,0.02456665,-1.031235,0,0,0,0,0,-1,-0.01684343,0.00755379,0.02571495,-0.4417284,-0.02363412,-0.02599206,0.0001411477,0.001482781,0.004930095,0.001697053,0.0003170201,-0.03087513,192.168.1.6,10.136.42.164,5,stationary,2,2014-09-21 00:27:52.066,0,2014-09-21 00:18:59.523,0
2014-09-21 00:27:52.285,23,0.23,0,0,0,0,0,0,0,-1,-0.02360535,0.02619934,-1.027924,0,0,0,0,0,-1,-0.01809485,0.00998499,0.02567953,-0.441513,-0.02336775,-0.026017,0.0002188179,0.0002444522,-3.744062e-05,0.0003169482,0.0001852715,-0.03099159,192.168.1.6,10.136.42.164,5,stationary,2,2014-09-21 00:27:52.066,0,2014-09-21 00:18:59.523,0
2014-09-21 00:27:52.310,24,0.24,0,0,0,0,0,0,0,-1,-0.02220154,0.02345276,-1.030197,0,0,0,0,0,-1,-0.01683011,0.009974071,0.02570749,-0.4414799,-0.02333807,-0.02600725,-0.001067988,0.003900217,0.00240923,-0.00027729,0.0001950211,-0.02853398,192.168.1.6,10.136.42.164,5,stationary,2,2014-09-21 00:27:52.066,0,2014-09-21 00:18:59.523,0
2014-09-21 00:27:52.331,25,0.25,0,0,0,0,0,0,0,-1,-0.02220154,0.02345276,-1.030197,0,0,0,0,0,-1,-0.02067306,0.008811069,0.02811313,-0.4414799,-0.02333807,-0.02600725,-0.001067988,0.003900217,0.00240923,-0.00027729,0.0001950211,-0.02853398,192.168.1.6,10.136.42.164,5,stationary,2,2014-09-21 00:27:52.066,0,2014-09-21 00:18:59.523,0
2014-09-21 00:27:52.370,26,0.26,0,0,0,0,0,0,0,-1,-0.02328491,0.0226593,-1.030304,0,0,0,0,0,-1,-0.01811482,0.006354569,0.02569072,-0.4412464,-0.02325766,-0.02592287,0.001435947,0.000250804,0.004944767,-0.0006932924,-0.001795826,-0.03235988,192.168.1.6,10.136.42.164,5,stationary,2,2014-09-21 00:27:52.066,0,2014-09-21 00:18:59.523,0
2014-09-21 00:27:52.396,27,0.27,0,0,0,0,0,0,0,-1,-0.02223206,0.02508545,-1.031021,0,0,0,0,0,-1,-0.01558535,0.006332731,0.02574664,-0.4411964,-0.02322851,-0.0258659,-0.007353493,0.0003057796,0.001020423,-6.626118e-05,-0.003203717,-0.03090814,192.168.1.6,10.136.42.164,5,stationary,2,2014-09-21 00:27:52.066,0,2014-09-21 00:18:59.523,0
2014-09-21 00:27:52.426,28,0.28,0,0,0,0,0,0,0,-1,-0.02226257,0.02554321,-1.030441,0,0,0,0,0,-1,-0.0206853,0.002753176,0.02688887,-0.4411585,-0.02319413,-0.02580261,-0.004845731,0.003928919,0.003551076,-0.001306024,0.0003232963,-0.03266047,192.168.1.6,10.136.42.164,5,stationary,2,2014-09-21 00:27:52.066,0,2014-09-21 00:18:59.523,0
2014-09-21 00:27:52.456,29,0.29,0,0,0,0,0,0,0,-1,-0.02310181,0.02503967,-1.030762,0,0,0,0,0,-1,-0.01936411,0.001510545,0.02319187,-0.4410884,-0.02314243,-0.02585995,-0.0009939632,-0.0009726725,-0.001321555,0.0008700557,-0.000313859,-0.03104332,192.168.1.6,10.136.42.164,5,stationary,2,2014-09-21 00:27:52.066,0,2014-09-21 00:18:59.523,0
2014-09-21 00:27:52.479,30,0.3,0,0,0,0,0,0,0,-1,-0.02392578,0.02662659,-1.035233,0,0,0,0,0,-1,-0.0117978,0.005089833,0.02583426,-0.4411032,-0.02317752,-0.02583175,-0.002299459,-0.004584917,-9.536679e-05,6.590428e-05,-0.000789204,-0.03136384,192.168.1.6,10.136.42.164,5,stationary,2,2014-09-21 00:27:52.066,0,2014-09-21 00:18:59.523,0
2014-09-21 00:27:52.505,31,0.31,0,0,0,0,0,0,0,-1,-0.02075195,0.02642822,-1.032501,0,0,0,0,0,-1,-0.015551,0.008745821,0.02449629,-0.4410051,-0.02316305,-0.02559927,0.004030199,0.0002085586,0.001272652,-0.001321704,-0.001945352,-0.03309703,192.168.1.6,10.136.42.164,5,stationary,2,2014-09-21 00:27:52.066,0,2014-09-21 00:18:59.523,0
2014-09-21 00:27:52.539,32,0.32,0,0,0,0,0,0,0,-1,-0.02407837,0.02520752,-1.033188,0,0,0,0,0,-1,-0.015551,0.008745821,0.02449629,-0.4409846,-0.02312069,-0.02554663,0.001514268,0.002650841,0.001209318,0.0008790267,-0.00192324,-0.03367453,192.168.1.6,10.136.42.164,5,stationary,2,2014-09-21 00:27:52.066,0,2014-09-21 00:18:59.523,0
2014-09-21 00:27:52.562,33,0.33,0,0,0,0,0,0,0,-1,-0.0227356,0.02346802,-1.03302,0,0,0,0,0,-1,-0.01681573,0.00875674,0.02446833,-0.4409412,-0.02304439,-0.02553292,0.001557412,0.002656026,0.001095851,-0.00113508,-0.0009940153,-0.0350152,192.168.1.6,10.136.42.164,5,stationary,2,2014-09-21 00:27:52.066,0,2014-09-21 00:18:59.523,0
2014-09-21 00:27:52.594,34,0.34,0,0,0,0,0,0,0,-1,-0.02151489,0.02523804,-1.033157,0,0,0,0,0,-1,-0.01946371,0.00639425,0.03063434,-0.440743,-0.02289921,-0.02539692,-0.001117382,-0.000908751,0.008508758,0.001435967,-0.0003545151,-0.0332689,192.168.1.6,10.136.42.164,5,stationary,2,2014-09-21 00:27:52.066,0,2014-09-21 00:18:59.523,0
2014-09-21 00:27:52.625,35,0.35,0,0,0,0,0,0,0,-1,-0.0227356,0.02557373,-1.032867,0,0,0,0,0,-1,-0.01432834,0.008749283,0.02701005,-0.4406395,-0.02282348,-0.02540185,-0.0009843525,0.0002586766,0.001047726,0.001787529,-0.0002831489,-0.03419808,192.168.1.6,10.136.42.164,5,stationary,2,2014-09-21 00:27:52.066,0,2014-09-21 00:18:59.523,0
2014-09-21 00:27:52.665,36,0.36,0,0,0,0,0,0,0,-1,-0.02328491,0.0255127,-1.034302,0,0,0,0,0,-1,-0.01178449,0.007510114,0.0258268,-0.440523,-0.02270424,-0.02527793,0.002810101,0.0002262376,0.001131814,-0.001337556,0.0001306504,-0.03452792,192.168.1.6,10.136.42.164,5,stationary,2,2014-09-21 00:27:52.066,0,2014-09-21 00:18:59.523,0
2014-09-21 00:27:52.693,37,0.37,0,0,0,0,0,0,0,-1,-0.0227356,0.02734375,-1.033737,0,0,0,0,0,-1,-0.01049206,0.008702145,0.02460814,-0.4405007,-0.02266023,-0.02511512,0.002802489,0.002653817,0.002367378,-0.0001149646,0.0003849599,-0.03411084,192.168.1.6,10.136.42.164,5,stationary,2,2014-09-21 00:27:52.066,0,2014-09-21 00:18:59.523,0
2014-09-21 00:27:52.716,38,0.38,0,0,0,0,0,0,0,-1,-0.02207947,0.02700806,-1.033875,0,0,0,0,0,-1,-0.02315938,0.005180913,0.02433969,-0.4404482,-0.02263387,-0.02506459,-0.002268425,-0.003338876,0.003409795,-0.0001107658,0.002281781,-0.03430734,192.168.1.6,10.136.42.164,5,stationary,2,2014-09-21 00:27:52.066,0,2014-09-21 00:18:59.523,0
2014-09-21 00:27:52.740,39,0.39,0,0,0,0,0,0,0,-1,-0.02131653,0.02676392,-1.032425,0,0,0,0,0,-1,-0.02315938,0.005180913,0.02433969,-0.4404482,-0.02263387,-0.02506459,-0.002268425,-0.003338876,0.003409795,-0.0001107658,0.002281781,-0.03430734,192.168.1.6,10.136.42.164,5,stationary,2,2014-09-21 00:27:52.066,0,2014-09-21 00:18:59.523,0
2014-09-21 00:27:52.778,40,0.4,0,0,0,0,0,0,0,-1,-0.02316284,0.02429199,-1.033142,0,0,0,0,0,-1,-0.02188799,0.006380135,0.02436393,-0.4403588,-0.02247561,-0.02527863,-0.002241963,0.001502549,0.003395173,0.001882429,-0.002036799,-0.03523994,192.168.1.6,10.136.42.164,5,stationary,2,2014-09-21 00:27:52.066,0,2014-09-21 00:18:59.523,0
2014-09-21 00:27:52.801,41,0.41,0,0,0,0,0,0,0,-1,-0.02116394,0.02360535,-1.034317,0,0,0,0,0,-1,-0.01687113,0.00635084,0.02696158,-0.4403495,-0.0224312,-0.0252675,-0.004735711,0.0003001488,0.0008572551,-0.0007406852,-0.0009728241,-0.03371279,192.168.1.6,10.136.42.164,5,stationary,2,2014-09-21 00:27:52.066,0,2014-09-21 00:18:59.523,0
2014-09-21 00:27:52.829,42,0.42,0,0,0,0,0,0,0,-1,-0.02259827,0.02482605,-1.033676,0,0,0,0,0,-1,-0.02195776,0.005191566,0.02809635,-0.4402142,-0.02242294,-0.02525506,-0.004839021,-0.003300746,0.005840251,0.001463589,-0.001631771,-0.03542127,192.168.1.6,10.136.42.164,5,stationary,2,2014-09-21 00:27:52.066,0,2014-09-21 00:18:59.523,0
2014-09-21 00:27:52.862,43,0.43,0,0,0,0,0,0,0,-1,-0.02230835,0.02430725,-1.036407,0,0,0,0,0,-1,-0.0169132,0.006365221,0.02944737,-0.4401522,-0.02242588,-0.02525714,-0.004804444,-0.0008876132,0.004589946,-0.0004408137,-0.002015317,-0.03429224,192.168.1.6,10.136.42.164,5,stationary,2,2014-09-21 00:27:52.066,0,2014-09-21 00:18:59.523,0
2014-09-21 00:27:52.884,44,0.44,0,0,0,0,0,0,0,-1,-0.02146912,0.02420044,-1.033005,0,0,0,0,0,-1,-0.01179115,0.006299974,0.02583053,-0.4400463,-0.02242415,-0.02526603,0.0002402892,0.0002861742,0.005941065,-0.0001984155,-0.0005288488,-0.03623029,192.168.1.6,10.136.42.164,5,stationary,2,2014-09-21 00:27:52.066,0,2014-09-21 00:18:59.523,0
2014-09-21 00:27:52.917,45,0.45,0,0,0,0,0,0,0,-1,-0.02345276,0.02555847,-1.033218,0,0,0,0,0,-1,-0.01434938,0.008756474,0.02825294,-0.4399268,-0.02220595,-0.02510074,-0.0009052588,0.002704256,0.002075064,-0.000401139,0.001726851,-0.03385615,192.168.1.6,10.136.42.164,5,stationary,2,2014-09-21 00:27:52.066,0,2014-09-21 00:18:59.523,0
2014-09-21 00:27:52.945,46,0.46,0,0,0,0,0,0,0,-1,-0.02264404,0.02671814,-1.032837,0,0,0,0,0,-1,-0.01687778,0.0051407,0.02696531,-0.4398807,-0.02220157,-0.02505056,0.004147006,0.001450275,0.002190742,-0.002480681,0.0006783738,-0.03457196,192.168.1.6,10.136.42.164,5,stationary,2,2014-09-21 00:27:52.066,0,2014-09-21 00:18:59.523,0
2014-09-21 00:27:52.969,47,0.47,0,0,0,0,0,0,0,-1,-0.02264404,0.02671814,-1.032837,0,0,0,0,0,-1,-0.01687778,0.0051407,0.02696531,-0.4398807,-0.02220157,-0.02505056,0.004147006,0.001450275,0.002190742,-0.002480681,0.0006783738,-0.03457196,192.168.1.6,10.136.42.164,5,stationary,2,2014-09-21 00:27:52.066,0,2014-09-21 00:18:59.523,0
2014-09-21 00:27:53.004,48,0.48,0,0,0,0,0,0,0,-1,-0.02450562,0.02635193,-1.033279,0,0,0,0,0,-1,-0.01306147,0.001463141,0.02457459,-0.4397528,-0.02211965,-0.02503832,-0.004629833,0.003925765,-0.001740891,0.0006723189,0.000614322,-0.03510389,192.168.1.6,10.136.42.164,5,stationary,2,2014-09-21 00:27:52.066,0,2014-09-21 00:18:59.523,0
2014-09-21 00:27:53.030,49,0.49,0,0,0,0,0,0,0,-1,-0.02200317,0.02308655,-1.035477,0,0,0,0,0,-1,-0.02193007,0.006394516,0.02684972,-0.4397286,-0.0221773,-0.02503303,-0.004712889,0.0003168376,0.001999083,-0.002337078,0.001321515,-0.03383856,192.168.1.6,10.136.42.164,5,stationary,2,2014-09-21 00:27:52.066,0,2014-09-21 00:18:59.523,0
2014-09-21 00:27:53.052,50,0.5,0,0,0,0,0,0,0,-1,-0.02200317,0.02308655,-1.035477,0,0,0,0,0,-1,-0.02571655,0.003999802,0.02553039,-0.4397286,-0.0221773,-0.02503303,-0.004712889,0.0003168376,0.001999083,-0.002337078,0.001321515,-0.03383856,192.168.1.6,10.136.42.164,5,stationary,2,2014-09-21 00:27:52.066,0,2014-09-21 00:18:59.523,0
2014-09-21 00:27:53.091,51,0.51,0,0,0,0,0,0,0,-1,-0.02011108,0.02549744,-1.033768,0,0,0,0,0,-1,-0.02578526,-0.0008263789,0.0280311,-0.4396058,-0.02221498,-0.02528813,-0.005904555,-0.005736515,-0.001836434,0.001347287,-0.002183633,-0.03595152,192.168.1.6,10.136.42.164,5,stationary,2,2014-09-21 00:27:52.066,0,2014-09-21 00:18:59.523,0
2014-09-21 00:27:53.114,52,0.52,0,0,0,0,0,0,0,-1,-0.02088928,0.02258301,-1.035156,0,0,0,0,0,-1,-0.0257288,-0.002058091,0.02430614,-0.4395171,-0.02223247,-0.02549,-0.01234736,-0.004427839,0.005477587,0.002219145,-0.002446472,-0.03649109,192.168.1.6,10.136.42.164,5,stationary,2,2014-09-21 00:27:52.066,0,2014-09-21 00:18:59.523,0
2014-09-21 00:27:53.142,53,0.53,0,0,0,0,0,0,0,-1,-0.02096558,0.02645874,-1.033676,0,0,0,0,0,-1,-0.02446513,0.001568602,0.02556581,-0.4393752,-0.02227364,-0.02568202,-0.007232251,-0.002064747,0.003096392,0.0009021547,-0.0006090099,-0.0355051,192.168.1.6,10.136.42.164,5,stationary,2,2014-09-21 00:27:52.066,0,2014-09-21 00:18:59.523,0
2014-09-21 00:27:53.181,54,0.54,0,0,0,0,0,0,0,-1,-0.02262878,0.02520752,-1.035675,0,0,0,0,0,-1,-0.013119,0.006332465,0.02953126,-0.4392641,-0.02223919,-0.02582472,-0.0009304727,0.001525787,0.005710945,-0.0007955755,-0.001957105,-0.03625569,192.168.1.6,10.136.42.164,5,stationary,2,2014-09-21 00:27:52.066,0,2014-09-21 00:18:59.523,0
2014-09-21 00:27:53.225,55,0.55,0,0,0,0,0,0,0,-1,-0.02058411,0.02545166,-1.034882,0,0,0,0,0,-1,-0.02196442,0.003981426,0.02810008,-0.4391177,-0.02227462,-0.02590488,-0.007175861,-0.00327474,0.001764549,0.0001553232,0.0007398656,-0.03587708,192.168.1.6,10.136.42.164,5,stationary,2,2014-09-21 00:27:52.066,0,2014-09-21 00:18:59.523,0
2014-09-21 00:27:53.254,56,0.56,0,0,0,0,0,0,0,-1,-0.01924133,0.02563477,-1.036346,0,0,0,0,0,-1,-0.02572321,0.002789661,0.02553412,-0.4390473,-0.02223563,-0.02599559,-0.007196724,-0.003267152,0.00300755,0.001642179,-0.0005410039,-0.03546658,192.168.1.6,10.136.42.164,5,stationary,2,2014-09-21 00:27:52.066,0,2014-09-21 00:18:59.523,0
2014-09-21 00:27:53.275,57,0.57,0,0,0,0,0,0,0,-1,-0.02095032,0.02546692,-1.034851,0,0,0,0,0,-1,-0.02952407,0.001612278,0.02545396,-0.4390386,-0.02223569,-0.02614922,-0.007161187,-0.004491162,0.0005255918,0.002984923,-0.0005114732,-0.03693543,192.168.1.6,10.136.42.164,5,stationary,2,2014-09-21 00:27:52.066,0,2014-09-21 00:18:59.523,0
2014-09-21 00:27:53.302,58,0.58,0,0,0,0,0,0,0,-1,-0.02095032,0.02546692,-1.034851,0,0,0,0,0,-1,-0.02318042,0.005188104,0.02558259,-0.4390386,-0.02223569,-0.02614922,-0.007161187,-0.004491162,0.0005255918,0.002984923,-0.0005114732,-0.03693543,192.168.1.6,10.136.42.164,5,stationary,2,2014-09-21 00:27:52.066,0,2014-09-21 00:18:59.523,0
2014-09-21 00:27:53.338,59,0.59,0,0,0,0,0,0,0,-1,-0.02348328,0.02481079,-1.034485,0,0,0,0,0,-1,-0.03340137,-0.001963815,0.02910995,-0.4389207,-0.02238857,-0.02667525,-0.01098139,-0.009298167,0.000456923,-0.0001279768,-0.0005948181,-0.0342214,192.168.1.6,10.136.42.164,5,stationary,2,2014-09-21 00:27:52.066,0,2014-09-21 00:18:59.523,0
2014-09-21 00:27:53.361,60,0.6,0,0,0,0,0,0,0,-1,-0.02244568,0.0243988,-1.035416,0,0,0,0,0,-1,-0.03584561,-0.005608351,0.02285072,-0.4389207,-0.02238857,-0.02667525,-0.01098139,-0.009298167,0.000456923,-0.0001279768,-0.0005948181,-0.0342214,192.168.1.6,10.136.42.164,5,stationary,2,2014-09-21 00:27:52.066,0,2014-09-21 00:18:59.523,0
2014-09-21 00:27:53.405,61,0.61,0,0,0,0,0,0,0,-1,-0.02490234,0.02641296,-1.031754,0,0,0,0,0,-1,-0.03460964,-0.003184608,0.02535702,-0.4387416,-0.02306793,-0.02748125,-0.0198949,-0.01283696,0.002758427,0.001420217,-0.003902966,-0.03406029,192.168.1.6,10.136.42.164,5,stationary,2,2014-09-21 00:27:52.066,0,2014-09-21 00:18:59.523,0
2014-09-21 00:27:53.429,62,0.62,0,0,0,0,0,0,0,-1,-0.02597046,0.03016663,-1.033783,0,0,0,0,0,-1,-0.02826493,-0.003246393,0.02425394,-0.4387157,-0.02334031,-0.02792231,-0.01730946,-0.0104525,0.0003212513,-0.001573254,-0.001505714,-0.03241561,192.168.1.6,10.136.42.164,5,stationary,2,2014-09-21 00:27:52.066,0,2014-09-21 00:18:59.523,0
2014-09-21 00:27:53.451,63,0.63,0,0,0,0,0,0,0,-1,-0.02522278,0.02963257,-1.038773,0,0,0,0,0,-1,-0.02826493,-0.003246393,0.02425394,-0.4387157,-0.02334031,-0.02792231,-0.01730946,-0.0104525,0.0003212513,-0.001573254,-0.001505714,-0.03241561,192.168.1.6,10.136.42.164,5,stationary,2,2014-09-21 00:27:52.066,0,2014-09-21 00:18:59.523,0
2014-09-21 00:27:53.490,64,0.64,0,0,0,0,0,0,0,-1,-0.02612305,0.02688599,-1.034012,0,0,0,0,0,-1,-0.02194232,0.0003366236,0.02562547,-0.4386442,-0.02398709,-0.02855858,-0.009708339,-0.01049519,0.002853505,-0.002117515,-0.001699225,-0.03582106,192.168.1.6,10.136.42.164,5,stationary,2,2014-09-21 00:27:52.066,0,2014-09-21 00:18:59.523,0
2014-09-21 00:27:53.516,65,0.65,0,0,0,0,0,0,0,-1,-0.02629089,0.02667236,-1.036987,0,0,0,0,0,-1,-0.02709207,-0.0008010789,0.03048893,-0.4386279,-0.0240942,-0.02857437,-0.004601537,-0.005705594,0.001707594,-0.002041013,-0.001684497,-0.03471019,192.168.1.6,10.136.42.164,5,stationary,2,2014-09-21 00:27:52.066,0,2014-09-21 00:18:59.523,0
2014-09-21 00:27:53.536,66,0.66,0,0,0,0,0,0,0,-1,-0.02412415,0.02929688,-1.037399,0,0,0,0,0,-1,-0.02709207,-0.0008010789,0.03048893,-0.4386279,-0.0240942,-0.02857437,-0.004601537,-0.005705594,0.001707594,-0.002041013,-0.001684497,-0.03471019,192.168.1.6,10.136.42.164,5,stationary,2,2014-09-21 00:27:52.066,0,2014-09-21 00:18:59.523,0
2014-09-21 00:27:53.573,67,0.67,0,0,0,0,0,0,0,-1,-0.0216217,0.02911377,-1.035416,0,0,0,0,0,-1,-0.02322916,0.003992345,0.02807212,-0.4383973,-0.02440282,-0.02885417,-0.005957267,-0.006875934,0.006655281,-0.002755141,0.001301201,-0.03648046,192.168.1.6,10.136.42.164,5,stationary,2,2014-09-21 00:27:52.066,0,2014-09-21 00:18:59.523,0
2014-09-21 00:27:53.598,68,0.68,0,0,0,0,0,0,0,-1,-0.02197266,0.03199768,-1.034729,0,0,0,0,0,-1,-0.02837678,-0.004420581,0.03047216,-0.4383238,-0.02447556,-0.02898944,-0.007144504,-0.008103632,0.001659564,0.002841131,0.0001283945,-0.0361352,192.168.1.6,10.136.42.164,5,stationary,2,2014-09-21 00:27:52.066,0,2014-09-21 00:18:59.523,0
2014-09-21 00:27:53.624,69,0.69,0,0,0,0,0,0,0,-1,-0.01972961,0.02905273,-1.034027,0,0,0,0,0,-1,-0.03718226,0.0004892227,0.0290186,-0.4380791,-0.02482037,-0.02955813,-0.01357933,-0.01286015,0.006506446,0.001491553,0.001070566,-0.03445135,192.168.1.6,10.136.42.164,5,stationary,2,2014-09-21 00:27:52.066,0,2014-09-21 00:18:59.523,0
2014-09-21 00:27:53.659,70,0.7,0,0,0,0,0,0,0,-1,-0.0231781,0.02694702,-1.036255,0,0,0,0,0,-1,-0.03846803,0.0005073322,0.03023354,-0.4379493,-0.02472466,-0.02987729,-0.01483048,-0.01042737,0.006471178,0.00556133,-0.0002860555,-0.03326828,192.168.1.6,10.136.42.164,5,stationary,2,2014-09-21 00:27:52.066,0,2014-09-21 00:18:59.523,0
2014-09-21 00:27:53.684,71,0.71,0,0,0,0,0,0,0,-1,-0.0231781,0.02694702,-1.036255,0,0,0,0,0,-1,-0.03347327,0.00412284,0.03530579,-0.4378824,-0.02467046,-0.03004279,-0.02112732,-0.00553154,0.006316509,0.006727752,-0.001824767,-0.03438579,192.168.1.6,10.136.42.164,5,stationary,2,2014-09-21 00:27:52.066,0,2014-09-21 00:18:59.523,0
2014-09-21 00:27:53.715,72,0.72,0,0,0,0,0,0,0,-1,-0.03137207,0.02990723,-1.03624,0,0,0,0,0,-1,-0.02455461,0.01978542,0.03669596,-0.4374039,-0.02470148,-0.0304928,-0.007183469,0.01131134,0.01030079,-0.003831187,-0.001175939,-0.03484267,192.168.1.6,10.136.42.164,5,stationary,2,2014-09-21 00:27:52.066,0,2014-09-21 00:18:59.523,0
2014-09-21 00:27:53.744,73,0.73,0,0,0,0,0,0,0,-1,-0.03430176,0.03132629,-1.038956,0,0,0,0,0,-1,-0.01435151,0.0160317,0.03071637,-0.4372371,-0.024564,-0.03057745,-0.005799911,0.01368396,0.004106896,-0.00682202,-0.0006654635,-0.03700862,192.168.1.6,10.136.42.164,5,stationary,2,2014-09-21 00:27:52.066,0,2014-09-21 00:18:59.523,0
2014-09-21 00:27:53.767,74,0.74,0,0,0,0,0,0,0,-1,-0.02804565,0.03007507,-1.036926,0,0,0,0,0,-1,-0.01435151,0.0160317,0.03071637,-0.4372371,-0.024564,-0.03057745,-0.005799911,0.01368396,0.004106896,-0.00682202,-0.0006654635,-0.03700862,192.168.1.6,10.136.42.164,5,stationary,2,2014-09-21 00:27:52.066,0,2014-09-21 00:18:59.523,0
2014-09-21 00:27:53.804,75,0.75,0,0,0,0,0,0,0,-1,-0.02497864,0.03291321,-1.035721,0,0,0,0,0,-1,-0.00910881,0.01107555,0.01841416,-0.4368831,-0.0239743,-0.03020198,0.01568072,0.009867695,0.004593777,0.003788949,0.002242791,-0.03550281,192.168.1.6,10.136.42.164,5,stationary,2,2014-09-21 00:27:52.066,0,2014-09-21 00:18:59.523,0
2014-09-21 00:27:53.830,76,0.76,0,0,0,0,0,0,0,-1,-0.02479553,0.03074646,-1.031631,0,0,0,0,0,-1,-0.009168731,0.0001842908,0.01844772,-0.4369622,-0.02401064,-0.02995891,0.01066686,-0.001016343,-0.001698935,-0.006336913,0.001020918,-0.03215469,192.168.1.6,10.136.42.164,5,stationary,2,2014-09-21 00:27:52.066,0,2014-09-21 00:18:59.523,0
2014-09-21 00:27:53.852,77,0.77,0,0,0,0,0,0,0,-1,-0.02130127,0.02853394,-1.032547,0,0,0,0,0,-1,-0.009168731,0.0001842908,0.01844772,-0.4369622,-0.02401064,-0.02995891,0.01066686,-0.001016343,-0.001698935,-0.006336913,0.001020918,-0.03215469,192.168.1.6,10.136.42.164,5,stationary,2,2014-09-21 00:27:52.066,0,2014-09-21 00:18:59.523,0
2014-09-21 00:27:53.890,78,0.78,0,0,0,0,0,0,0,-1,-0.02069092,0.02728271,-1.031677,0,0,0,0,0,-1,-0.02827611,-0.0129419,0.02179797,-0.437176,-0.0245676,-0.02978828,-0.009596568,-0.02144131,-0.007054222,0.0001096538,-0.004240659,-0.0314307,192.168.1.6,10.136.42.164,5,stationary,2,2014-09-21 00:27:52.066,0,2014-09-21 00:18:59.523,0
2014-09-21 00:27:53.914,79,0.79,0,0,0,0,0,0,0,-1,-0.02220154,0.02684021,-1.035172,0,0,0,0,0,-1,-0.02949771,-0.01658297,0.0180525,-0.4372462,-0.02471915,-0.02984862,-0.01093185,-0.0189809,-0.002117998,0.0040147,-0.002561475,-0.03242805,192.168.1.6,10.136.42.164,5,stationary,2,2014-09-21 00:27:52.066,0,2014-09-21 00:18:59.523,0
2014-09-21 00:27:53.945,80,0.8,0,0,0,0,0,0,0,-1,-0.02487183,0.03013611,-1.03891,0,0,0,0,0,-1,-0.03198936,-0.002025068,0.02043763,-0.4372897,-0.02528236,-0.03024788,-0.01474705,-0.01530215,0.0002729005,0.0003047191,-0.001312599,-0.03481923,192.168.1.6,10.136.42.164,5,stationary,2,2014-09-21 00:27:52.066,0,2014-09-21 00:18:59.523,0
2014-09-21 00:27:53.974,81,0.81,0,0,0,0,0,0,0,-1,-0.02755737,0.03288269,-1.042374,0,0,0,0,0,-1,-0.02192128,0.000329433,0.02438257,-0.4372963,-0.02541021,-0.03045817,-0.01089252,-0.004443343,0.0003233326,0.0005238626,-0.0003173523,-0.0396964,192.168.1.6,10.136.42.164,5,stationary,2,2014-09-21 00:27:52.066,0,2014-09-21 00:18:59.523,0
2014-09-21 00:27:53.998,82,0.82,0,0,0,0,0,0,0,-1,-0.03094482,0.03250122,-1.038971,0,0,0,0,0,-1,-0.02179824,0.01119913,0.02062032,-0.4372648,-0.02548157,-0.03066228,-0.008372277,0.00159988,0.002846545,-0.002090533,0.002225218,-0.04316819,192.168.1.6,10.136.42.164,5,stationary,2,2014-09-21 00:27:52.066,0,2014-09-21 00:18:59.523,0
2014-09-21 00:27:54.023,83,0.83,0,0,0,0,0,0,0,-1,-0.02909851,0.03338623,-1.03569,0,0,0,0,0,-1,-0.01043986,0.02202088,0.02581003,-0.437237,-0.02531382,-0.03074337,0.001846958,0.01238788,0.00055106,-0.006896886,0.002464602,-0.03793266,192.168.1.6,10.136.42.164,5,stationary,2,2014-09-21 00:27:52.066,0,2014-09-21 00:18:59.523,0
2014-09-21 00:27:54.058,84,0.84,0,0,0,0,0,0,0,-1,-0.02902222,0.03305054,-1.035461,0,0,0,0,0,-1,-0.007917046,0.0207889,0.02586968,-0.4371873,-0.02510744,-0.03062746,0.009391707,0.0159737,0.004436444,-0.004005479,0.002763554,-0.03647432,192.168.1.6,10.136.42.164,5,stationary,2,2014-09-21 00:27:52.066,0,2014-09-21 00:18:59.523,0
2014-09-21 00:27:54.083,85,0.85,0,0,0,0,0,0,0,-1,-0.02926636,0.03034973,-1.034866,0,0,0,0,0,-1,-0.0130447,0.0160064,0.02825854,-0.4371873,-0.02510744,-0.03062746,0.009391707,0.0159737,0.004436444,-0.004005479,0.002763554,-0.03647432,192.168.1.6,10.136.42.164,5,stationary,2,2014-09-21 00:27:52.066,0,2014-09-21 00:18:59.523,0
2014-09-21 00:27:54.111,86,0.86,0,0,0,0,0,0,0,-1,-0.02334595,0.02937317,-1.030746,0,0,0,0,0,-1,-0.02451493,0.004010454,0.02928705,-0.4369843,-0.02463919,-0.03037045,-0.0007719707,0.003951847,0.003007444,0.002027074,9.075775e-05,-0.03370826,192.168.1.6,10.136.42.164,5,stationary,2,2014-09-21 00:27:52.066,0,2014-09-21 00:18:59.523,0
2014-09-21 00:27:54.143,87,0.87,0,0,0,0,0,0,0,-1,-0.02101135,0.02806091,-1.034012,0,0,0,0,0,-1,-0.02450055,0.002793123,0.02804788,-0.4368771,-0.02465833,-0.03047998,-0.005905076,-0.005678092,0.004168422,0.001298431,-0.001102091,-0.0315148,192.168.1.6,10.136.42.164,5,stationary,2,2014-09-21 00:27:52.066,0,2014-09-21 00:18:59.523,0
2014-09-21 00:27:54.166,88,0.88,0,0,0,0,0,0,0,-1,-0.02101135,0.02806091,-1.034012,0,0,0,0,0,-1,-0.0220342,0.002792857,0.0318325,-0.4368445,-0.02461916,-0.03050072,-0.007156284,-0.003246391,0.004133034,0.004295774,-0.001336448,-0.0343526,192.168.1.6,10.136.42.164,5,stationary,2,2014-09-21 00:27:52.066,0,2014-09-21 00:18:59.523,0
2014-09-21 00:27:54.199,89,0.89,0,0,0,0,0,0,0,-1,-0.02583313,0.03172302,-1.034622,0,0,0,0,0,-1,-0.01689882,0.00514789,0.0282082,-0.4365431,-0.02451147,-0.03043842,-0.003360386,-0.003277453,0.004217203,-0.0006335636,-0.001289432,-0.03750663,192.168.1.6,10.136.42.164,5,stationary,2,2014-09-21 00:27:52.066,0,2014-09-21 00:18:59.523,0
2014-09-21 00:27:54.228,90,0.9,0,0,0,0,0,0,0,-1,-0.02941895,0.03024292,-1.036667,0,0,0,0,0,-1,-0.02441852,0.01003958,0.02553971,-0.4364538,-0.02456698,-0.03047828,-0.002034778,0.003965017,0.002979996,-0.003385739,0.001310499,-0.03549504,192.168.1.6,10.136.42.164,5,stationary,2,2014-09-21 00:27:52.066,0,2014-09-21 00:18:59.523,0
2014-09-21 00:27:54.251,91,0.91,0,0,0,0,0,0,0,-1,-0.02941895,0.03024292,-1.036667,0,0,0,0,0,-1,-0.0194504,0.00881453,0.03062689,-0.4364538,-0.02456698,-0.03047828,-0.002034778,0.003965017,0.002979996,-0.003385739,0.001310499,-0.03549504,192.168.1.6,10.136.42.164,5,stationary,2,2014-09-21 00:27:52.066,0,2014-09-21 00:18:59.523,0
2014-09-21 00:27:54.290,92,0.92,0,0,0,0,0,0,0,-1,-0.02886963,0.02755737,-1.034348,0,0,0,0,0,-1,-0.01806049,0.01239808,0.02442918,-0.4363202,-0.02458499,-0.03047776,0.001822802,0.003909473,-0.0006646126,-0.001780833,-0.001008319,-0.03761644,192.168.1.6,10.136.42.164,5,stationary,2,2014-09-21 00:27:52.066,0,2014-09-21 00:18:59.523,0
2014-09-21 00:27:54.314,93,0.93,0,0,0,0,0,0,0,-1,-0.02520752,0.02824402,-1.036011,0,0,0,0,0,-1,-0.01678138,0.01116983,0.02321797,-0.4363134,-0.02457786,-0.0304128,-0.0007139131,0.006358074,0.0005150017,-0.004305605,-0.002850742,-0.03511185,192.168.1.6,10.136.42.164,5,stationary,2,2014-09-21 00:27:52.066,0,2014-09-21 00:18:59.523,0
2014-09-21 00:27:54.345,94,0.94,0,0,0,0,0,0,0,-1,-0.02346802,0.03045654,-1.033051,0,0,0,0,0,-1,-0.02322143,0.001564873,0.02683667,-0.4362312,-0.02450802,-0.03015428,0.001686696,-0.005743523,0.004337089,-8.748634e-05,-0.0002119702,-0.03488869,192.168.1.6,10.136.42.164,5,stationary,2,2014-09-21 00:27:52.066,0,2014-09-21 00:18:59.523,0
2014-09-21 00:27:54.374,95,0.95,0,0,0,0,0,0,0,-1,-0.0214386,0.03007507,-1.032272,0,0,0,0,0,-1,-0.02324913,0.0003619236,0.0280833,-0.4361418,-0.02461431,-0.03020233,-0.0009121438,-0.006909571,0.008013714,0.0001102412,-0.0009313786,-0.03632707,192.168.1.6,10.136.42.164,5,stationary,2,2014-09-21 00:27:52.066,0,2014-09-21 00:18:59.523,0
2014-09-21 00:27:54.398,96,0.96,0,0,0,0,0,0,0,-1,-0.02368164,0.03131104,-1.031357,0,0,0,0,0,-1,-0.02842658,-0.001978729,0.03419339,-0.4361418,-0.02461431,-0.03020233,-0.0009121438,-0.006909571,0.008013714,0.0001102412,-0.0009313786,-0.03632707,192.168.1.6,10.136.42.164,5,stationary,2,2014-09-21 00:27:52.066,0,2014-09-21 00:18:59.523,0
2014-09-21 00:27:54.421,97,0.97,0,0,0,0,0,0,0,-1,-0.02716064,0.03056335,-1.039566,0,0,0,0,0,-1,-0.0181348,0.002724147,0.0257019,-0.4358193,-0.02476365,-0.0305413,-0.005881127,-0.002046192,0.004158541,-0.001953311,2.680383e-05,-0.03562389,192.168.1.6,10.136.42.164,5,stationary,2,2014-09-21 00:27:52.066,0,2014-09-21 00:18:59.523,0
2014-09-21 00:27:54.467,98,0.98,0,0,0,0,0,0,0,-1,-0.02374268,0.03089905,-1.037445,0,0,0,0,0,-1,-0.01938515,0.001517736,0.02443477,-0.4357795,-0.02485572,-0.03059728,-0.000731185,-0.0009085347,-0.0007047783,-0.0004117708,0.0007337885,-0.03817609,192.168.1.6,10.136.42.164,5,stationary,2,2014-09-21 00:27:52.066,0,2014-09-21 00:18:59.523,0
2014-09-21 00:27:54.489,99,0.9899999,0,0,0,0,0,0,0,-1,-0.02374268,0.03089905,-1.037445,0,0,0,0,0,-1,-0.01938515,0.001517736,0.02443477,-0.4357795,-0.02485572,-0.03059728,-0.000731185,-0.0009085347,-0.0007047783,-0.0004117708,0.0007337885,-0.03817609,192.168.1.6,10.136.42.164,5,stationary,2,2014-09-21 00:27:52.066,0,2014-09-21 00:18:59.523,0
2014-09-21 00:27:54.526,100,1,0,0,0,0,0,0,0,-1,-0.02627563,0.03237915,-1.035706,0,0,0,0,0,-1,-0.01559201,0.00512259,0.02575037,-0.4358283,-0.02462245,-0.03058443,0.001792856,-0.002104304,0.002939514,0.004176934,-0.0006266549,-0.03556068,192.168.1.6,10.136.42.164,5,stationary,2,2014-09-21 00:27:52.066,0,2014-09-21 00:18:59.523,0
2014-09-21 00:27:54.554,101,1.01,0,0,0,0,0,0,0,-1,-0.0267334,0.03146362,-1.036011,0,0,0,0,0,-1,-0.01681467,0.005119128,0.02323661,-0.4357659,-0.02467952,-0.03062328,-0.000743611,-0.003292629,0.002887424,-0.001610187,0.001760656,-0.0364788,192.168.1.6,10.136.42.164,5,stationary,2,2014-09-21 00:27:52.066,0,2014-09-21 00:18:59.523,0
2014-09-21 00:27:54.576,102,1.02,0,0,0,0,0,0,0,-1,-0.02619934,0.03279114,-1.033615,0,0,0,0,0,-1,-0.01681467,0.005119128,0.02323661,-0.4357659,-0.02467952,-0.03062328,-0.000743611,-0.003292629,0.002887424,-0.001610187,0.001760656,-0.0364788,192.168.1.6,10.136.42.164,5,stationary,2,2014-09-21 00:27:52.066,0,2014-09-21 00:18:59.523,0
2014-09-21 00:27:54.616,103,1.03,0,0,0,0,0,0,0,-1,-0.02142334,0.02958679,-1.035782,0,0,0,0,0,-1,-0.02314606,0.007601195,0.02433224,-0.4356476,-0.02476001,-0.03091726,-0.008297828,-0.0008141794,0.001469569,-0.001560503,-0.001188211,-0.03456723,192.168.1.6,10.136.42.164,5,stationary,2,2014-09-21 00:27:52.066,0,2014-09-21 00:18:59.523,0
2014-09-21 00:27:54.640,104,1.04,0,0,0,0,0,0,0,-1,-0.0216217,0.03033447,-1.037323,0,0,0,0,0,-1,-0.01685674,0.005133509,0.02572241,-0.4356562,-0.02466249,-0.03092015,-0.005733772,0.001577646,0.0002752247,0.003224858,-0.00132843,-0.03656381,192.168.1.6,10.136.42.164,5,stationary,2,2014-09-21 00:27:52.066,0,2014-09-21 00:18:59.523,0
2014-09-21 00:27:54.669,105,1.05,0,0,0,0,0,0,0,-1,-0.0256958,0.03077698,-1.034027,0,0,0,0,0,-1,-0.01683677,0.008763931,0.02571122,-0.4355437,-0.02463979,-0.03084325,0.003050483,0.0003129233,0.004203632,-0.003313269,-0.001572003,-0.03358541,192.168.1.6,10.136.42.164,5,stationary,2,2014-09-21 00:27:52.066,0,2014-09-21 00:18:59.523,0
2014-09-21 00:27:54.702,106,1.06,0,0,0,0,0,0,0,-1,-0.02548218,0.03102112,-1.034363,0,0,0,0,0,-1,-0.01809378,0.006347378,0.02444782,-0.4355328,-0.02462305,-0.03078603,0.000576722,0.002740586,0.00165447,-0.001727775,-0.002186195,-0.0350786,192.168.1.6,10.136.42.164,5,stationary,2,2014-09-21 00:27:52.066,0,2014-09-21 00:18:59.523,0
2014-09-21 00:27:54.725,107,1.07,0,0,0,0,0,0,0,-1,-0.02714539,0.0300293,-1.032562,0,0,0,0,0,-1,-0.0194227,0.01001748,0.02938026,-0.4354942,-0.02462413,-0.03081874,-0.0006802085,0.0003238721,0.0003911641,-0.002565949,0.0006345065,-0.03706327,192.168.1.6,10.136.42.164,5,stationary,2,2014-09-21 00:27:52.066,0,2014-09-21 00:18:59.523,0
2014-09-21 00:27:54.758,108,1.08,0,0,0,0,0,0,0,-1,-0.0266571,0.02975464,-1.032806,0,0,0,0,0,-1,-0.01568176,0.0003036004,0.02949398,-0.4352735,-0.0246176,-0.03075112,-0.001958967,0.001551992,0.001602638,-0.0001310189,0.0009614881,-0.03533679,192.168.1.6,10.136.42.164,5,stationary,2,2014-09-21 00:27:52.066,0,2014-09-21 00:18:59.523,0
2014-09-21 00:27:54.789,109,1.09,0,0,0,0,0,0,0,-1,-0.02320862,0.03170776,-1.034714,0,0,0,0,0,-1,-0.02067092,0.001535845,0.0256497,-0.4352002,-0.02475785,-0.03071653,-0.001970808,-0.004506087,0.0003784714,-0.001913466,-0.000957056,-0.03358443,192.168.1.6,10.136.42.164,5,stationary,2,2014-09-21 00:27:52.066,0,2014-09-21 00:18:59.523,0
2014-09-21 00:27:54.810,110,1.1,0,0,0,0,0,0,0,-1,-0.02320862,0.03170776,-1.034714,0,0,0,0,0,-1,-0.02067092,0.001535845,0.0256497,-0.4352002,-0.02475785,-0.03071653,-0.001970808,-0.004506087,0.0003784714,-0.001913466,-0.000957056,-0.03358443,192.168.1.6,10.136.42.164,5,stationary,2,2014-09-21 00:27:52.066,0,2014-09-21 00:18:59.523,0
2014-09-21 00:27:54.844,111,1.11,0,0,0,0,0,0,0,-1,-0.02471924,0.03163147,-1.038132,0,0,0,0,0,-1,-0.01691214,0.00272761,0.02821566,-0.4349864,-0.02482833,-0.03069901,0.001830666,-0.003327658,0.0004589465,0.0001711408,2.175137e-05,-0.03790388,192.168.1.6,10.136.42.164,5,stationary,2,2014-09-21 00:27:52.066,0,2014-09-21 00:18:59.523,0
2014-09-21 00:27:54.873,112,1.12,0,0,0,0,0,0,0,-1,-0.02571106,0.03302002,-1.035477,0,0,0,0,0,-1,-0.01432062,0.006321812,0.02577461,-0.4349112,-0.02485427,-0.03072985,-0.004528453,-0.00204828,0.002801304,0.0003038482,0.0009064513,-0.03737141,192.168.1.6,10.136.42.164,5,stationary,2,2014-09-21 00:27:52.066,0,2014-09-21 00:18:59.523,0
2014-09-21 00:27:54.895,113,1.13,0,0,0,0,0,0,0,-1,-0.02616882,0.03501892,-1.03656,0,0,0,0,0,-1,-0.01432062,0.006321812,0.02577461,-0.4349112,-0.02485427,-0.03072985,-0.004528453,-0.00204828,0.002801304,0.0003038482,0.0009064513,-0.03737141,192.168.1.6,10.136.42.164,5,stationary,2,2014-09-21 00:27:52.066,0,2014-09-21 00:18:59.523,0
2014-09-21 00:27:54.933,114,1.14,0,0,0,0,0,0,0,-1,-0.02505493,0.03240967,-1.034729,0,0,0,0,0,-1,-0.01807381,0.009977799,0.02443663,-0.4347132,-0.02481918,-0.03082566,-0.0006416594,0.003981414,0.002733844,-0.001226651,-5.906002e-05,-0.03938764,192.168.1.6,10.136.42.164,5,stationary,2,2014-09-21 00:27:52.066,0,2014-09-21 00:18:59.523,0
2014-09-21 00:27:54.958,115,1.15,0,0,0,0,0,0,0,-1,-0.02433777,0.03285217,-1.038147,0,0,0,0,0,-1,-0.02067306,0.008811069,0.02811313,-0.4347043,-0.02476634,-0.03081935,-0.0005994492,0.003967107,0.0002481006,-0.0003181385,-0.0006020692,-0.03604446,192.168.1.6,10.136.42.164,5,stationary,2,2014-09-21 00:27:52.066,0,2014-09-21 00:18:59.523,0
2014-09-21 00:27:54.985,116,1.16,0,0,0,0,0,0,0,-1,-0.02362061,0.03257751,-1.037018,0,0,0,0,0,-1,-0.02317376,0.006398244,0.02557886,-0.4345442,-0.02455879,-0.03086346,0.009435537,0.0002716772,0.004211978,-0.0008459986,-0.0003562407,-0.03591864,192.168.1.6,10.136.42.164,5,stationary,2,2014-09-21 00:27:52.066,0,2014-09-21 00:18:59.523,0
2014-09-21 00:27:55.024,117,1.17,0,0,0,0,0,0,0,-1,-0.02497864,0.03230286,-1.033264,0,0,0,0,0,-1,-0.01685568,0.001495898,0.0244907,-0.4345087,-0.02446236,-0.03097871,-0.00441459,0.004008149,0.001407488,0.0008275792,0.001603759,-0.03779667,192.168.1.6,10.136.42.164,5,stationary,2,2014-09-21 00:27:52.066,0,2014-09-21 00:18:59.523,0
2014-09-21 00:27:55.049,118,1.18,0,0,0,0,0,0,0,-1,-0.02497864,0.03230286,-1.033264,0,0,0,0,0,-1,-0.01685568,0.001495898,0.0244907,-0.4345087,-0.02446236,-0.03097871,-0.00441459,0.004008149,0.001407488,0.0008275792,0.001603759,-0.03779667,192.168.1.6,10.136.42.164,5,stationary,2,2014-09-21 00:27:52.066,0,2014-09-21 00:18:59.523,0
2014-09-21 00:27:55.085,119,1.19,0,0,0,0,0,0,0,-1,-0.0239563,0.03103638,-1.035217,0,0,0,0,0,-1,-0.02194338,0.003974235,0.02685718,-0.4343208,-0.02441607,-0.03101924,0.0006430745,0.0003501615,0.00269534,0.0009949218,-2.366807e-05,-0.03564531,192.168.1.6,10.136.42.164,5,stationary,2,2014-09-21 00:27:52.066,0,2014-09-21 00:18:59.523,0
2014-09-21 00:27:55.111,120,1.2,0,0,0,0,0,0,0,-1,-0.02507019,0.02896118,-1.035767,0,0,0,0,0,-1,-0.02316604,0.003970773,0.02434342,-0.434271,-0.02443943,-0.03100736,0.001943404,-0.0008852537,0.0002413376,-0.002170818,-0.000362744,-0.03511145,192.168.1.6,10.136.42.164,5,stationary,2,2014-09-21 00:27:52.066,0,2014-09-21 00:18:59.523,0
2014-09-21 00:27:55.160,121,1.21,0,0,0,0,0,0,0,-1,-0.02561951,0.03031921,-1.033234,0,0,0,0,0,-1,-0.01563515,0.008774583,0.02946788,-0.4341041,-0.02442649,-0.03091897,0.0006021366,0.0003646342,0.005181447,-0.0009934999,-0.003295631,-0.03619177,192.168.1.6,10.136.42.164,5,stationary,2,2014-09-21 00:27:52.066,0,2014-09-21 00:18:59.523,0
2014-09-21 00:27:55.184,122,1.22,0,0,0,0,0,0,0,-1,-0.0249939,0.03163147,-1.036514,0,0,0,0,0,-1,-0.02073511,0.005195028,0.03061011,-0.4339999,-0.02440698,-0.0308538,0.0006300855,0.001567468,0.003934941,-0.0009366462,-0.00110953,-0.03606721,192.168.1.6,10.136.42.164,5,stationary,2,2014-09-21 00:27:52.066,0,2014-09-21 00:18:59.523,0
2014-09-21 00:27:55.206,123,1.23,0,0,0,0,0,0,0,-1,-0.02760315,0.03083801,-1.036957,0,0,0,0,0,-1,-0.02073511,0.005195028,0.03061011,-0.4339999,-0.02440698,-0.0308538,0.0006300855,0.001567468,0.003934941,-0.0009366462,-0.00110953,-0.03606721,192.168.1.6,10.136.42.164,5,stationary,2,2014-09-21 00:27:52.066,0,2014-09-21 00:18:59.523,0
2014-09-21 00:27:55.239,124,1.24,0,0,0,0,0,0,0,-1,-0.02511597,0.03022766,-1.034439,0,0,0,0,0,-1,-0.01568282,0.003941212,0.03072569,-0.4336967,-0.02446579,-0.03082484,0.005759428,-0.0009011468,0.001494378,0.0008616422,6.383138e-05,-0.03541163,192.168.1.6,10.136.42.164,5,stationary,2,2014-09-21 00:27:52.066,0,2014-09-21 00:18:59.523,0
2014-09-21 00:27:55.269,125,1.25,0,0,0,0,0,0,0,-1,-0.02635193,0.03285217,-1.031998,0,0,0,0,0,-1,-0.02316604,0.003970773,0.02434342,-0.4336463,-0.02449974,-0.03079976,-0.001835603,-0.002045655,0.001330432,-0.0006302977,-0.0005672286,-0.03521332,192.168.1.6,10.136.42.164,5,stationary,2,2014-09-21 00:27:52.066,0,2014-09-21 00:18:59.523,0
2014-09-21 00:27:55.290,126,1.26,0,0,0,0,0,0,0,-1,-0.02429199,0.03144836,-1.035324,0,0,0,0,0,-1,-0.02316604,0.003970773,0.02434342,-0.4336463,-0.02449974,-0.03079976,-0.001835603,-0.002045655,0.001330432,-0.0006302977,-0.0005672286,-0.03521332,192.168.1.6,10.136.42.164,5,stationary,2,2014-09-21 00:27:52.066,0,2014-09-21 00:18:59.523,0
2014-09-21 00:27:55.333,127,1.27,0,0,0,0,0,0,0,-1,-0.02412415,0.03172302,-1.037415,0,0,0,0,0,-1,-0.02190237,0.007597466,0.0256031,-0.4335672,-0.02461739,-0.03100224,-0.00569307,-0.00199114,0.004975548,0.0002500424,0.001320837,-0.0355429,192.168.1.6,10.136.42.164,5,stationary,2,2014-09-21 00:27:52.066,0,2014-09-21 00:18:59.523,0
2014-09-21 00:27:55.357,128,1.28,0,0,0,0,0,0,0,-1,-0.02456665,0.03140259,-1.03656,0,0,0,0,0,-1,-0.01941391,0.003952397,0.02691311,-0.4335413,-0.02463621,-0.03102088,-0.004345187,0.001606697,0.001263683,-0.001958947,5.099433e-05,-0.0345979,192.168.1.6,10.136.42.164,5,stationary,2,2014-09-21 00:27:52.066,0,2014-09-21 00:18:59.523,0
2014-09-21 00:27:55.385,129,1.29,0,0,0,0,0,0,0,-1,-0.02584839,0.03146362,-1.038132,0,0,0,0,0,-1,-0.01815024,0.00757909,0.02817278,-0.4333614,-0.02453798,-0.03106133,0.002012043,0.0039906,0.002571336,-0.001599361,0.002574037,-0.03749591,192.168.1.6,10.136.42.164,5,stationary,2,2014-09-21 00:27:52.066,0,2014-09-21 00:18:59.523,0
2014-09-21 00:27:55.421,130,1.3,0,0,0,0,0,0,0,-1,-0.02754211,0.03160095,-1.036163,0,0,0,0,0,-1,-0.01942936,0.00880734,0.02938399,-0.4333017,-0.0244734,-0.03110671,-0.001782353,0.004023357,0.002487553,-0.0008094315,0.003123768,-0.03722108,192.168.1.6,10.136.42.164,5,stationary,2,2014-09-21 00:27:52.066,0,2014-09-21 00:18:59.523,0
2014-09-21 00:27:55.446,131,1.31,0,0,0,0,0,0,0,-1,-0.02754211,0.03160095,-1.036163,0,0,0,0,0,-1,-0.0169132,0.006365221,0.02944737,-0.4332493,-0.02447908,-0.03112574,-0.001831156,0.002827425,0.004977123,-0.002894228,0.001441538,-0.03680982,192.168.1.6,10.136.42.164,5,stationary,2,2014-09-21 00:27:52.066,0,2014-09-21 00:18:59.523,0
2014-09-21 00:27:55.479,132,1.32,0,0,0,0,0,0,0,-1,-0.02534485,0.03057861,-1.035568,0,0,0,0,0,-1,-0.02066427,0.002745985,0.02564598,-0.4331034,-0.02450658,-0.03094867,0.0006932925,-0.002042142,0.003805286,-0.0001047753,-0.001662115,-0.03436359,192.168.1.6,10.136.42.164,5,stationary,2,2014-09-21 00:27:52.066,0,2014-09-21 00:18:59.523,0
2014-09-21 00:27:55.509,133,1.33,0,0,0,0,0,0,0,-1,-0.02455139,0.0307312,-1.034637,0,0,0,0,0,-1,-0.01935852,0.006358297,0.02441986,-0.4330507,-0.02450292,-0.03098912,-0.005630227,-0.001987201,0.003665604,0.0005324075,-0.0001003709,-0.03578382,192.168.1.6,10.136.42.164,5,stationary,2,2014-09-21 00:27:52.066,0,2014-09-21 00:18:59.523,0
2014-09-21 00:27:55.533,134,1.34,0,0,0,0,0,0,0,-1,-0.02455139,0.0307312,-1.034637,0,0,0,0,0,-1,-0.02191569,0.005177185,0.02561055,-0.4330507,-0.02450292,-0.03098912,-0.005630227,-0.001987201,0.003665604,0.0005324075,-0.0001003709,-0.03578382,192.168.1.6,10.136.42.164,5,stationary,2,2014-09-21 00:27:52.066,0,2014-09-21 00:18:59.523,0
2014-09-21 00:27:55.572,135,1.35,0,0,0,0,0,0,0,-1,-0.02655029,0.03117371,-1.03392,0,0,0,0,0,-1,-0.01940725,0.005162538,0.02690938,-0.432819,-0.02447735,-0.03107031,0.002023118,-0.002047128,0.002521781,-0.0002103699,-0.0007766093,-0.03796772,192.168.1.6,10.136.42.164,5,stationary,2,2014-09-21 00:27:52.066,0,2014-09-21 00:18:59.523,0
2014-09-21 00:27:55.597,136,1.36,0,0,0,0,0,0,0,-1,-0.02464294,0.03205872,-1.034653,0,0,0,0,0,-1,-0.01682239,0.007546599,0.02447205,-0.4327981,-0.0244547,-0.0310616,-0.001764422,-0.0008040369,0.002434221,0.001033489,0.0007121901,-0.03863829,192.168.1.6,10.136.42.164,5,stationary,2,2014-09-21 00:27:52.066,0,2014-09-21 00:18:59.523,0
2014-09-21 00:27:55.620,137,1.37,0,0,0,0,0,0,0,-1,-0.02651978,0.03186035,-1.037399,0,0,0,0,0,-1,-0.01429958,0.006314621,0.02453171,-0.4326596,-0.02436138,-0.03109126,-0.001793395,0.00163079,0.00491285,-0.001073941,0.002330493,-0.03758407,192.168.1.6,10.136.42.164,5,stationary,2,2014-09-21 00:27:52.066,0,2014-09-21 00:18:59.523,0
2014-09-21 00:27:55.658,138,1.38,0,0,0,0,0,0,0,-1,-0.02610779,0.03170776,-1.035141,0,0,0,0,0,-1,-0.01684902,0.002706038,0.02448697,-0.4326513,-0.02436058,-0.03099985,0.00587934,0.001536459,0.0001091368,-0.0005406216,-0.0009808518,-0.03614689,192.168.1.6,10.136.42.164,5,stationary,2,2014-09-21 00:27:52.066,0,2014-09-21 00:18:59.523,0
2014-09-21 00:27:55.682,139,1.39,0,0,0,0,0,0,0,-1,-0.02722168,0.03100586,-1.035019,0,0,0,0,0,-1,-0.01946371,0.00639425,0.03063434,-0.4326448,-0.02439408,-0.03094661,0.00079398,-0.003260568,1.221461e-05,-0.002429713,-0.001324358,-0.03530683,192.168.1.6,10.136.42.164,5,stationary,2,2014-09-21 00:27:52.066,0,2014-09-21 00:18:59.523,0
2014-09-21 00:27:55.710,140,1.4,0,0,0,0,0,0,0,-1,-0.02415466,0.02996826,-1.034439,0,0,0,0,0,-1,-0.02067865,0.003963316,0.02688514,-0.4323991,-0.02437322,-0.03096505,0.003307891,0.001572714,0.002539313,6.096571e-06,0.002334571,-0.03509327,192.168.1.6,10.136.42.164,5,stationary,2,2014-09-21 00:27:52.066,0,2014-09-21 00:18:59.523,0
2014-09-21 00:27:55.743,141,1.41,0,0,0,0,0,0,0,-1,-0.02363586,0.03012085,-1.035736,0,0,0,0,0,-1,-0.01939287,0.003945207,0.02567021,-0.432363,-0.02434823,-0.03097382,-0.002960666,0.0004224104,0.001098323,-0.0006139682,-0.0008174961,-0.03780899,192.168.1.6,10.136.42.164,5,stationary,2,2014-09-21 00:27:52.066,0,2014-09-21 00:18:59.523,0
2014-09-21 00:27:55.767,142,1.42,0,0,0,0,0,0,0,-1,-0.02363586,0.03012085,-1.035736,0,0,0,0,0,-1,-0.01939287,0.003945207,0.02567021,-0.432363,-0.02434823,-0.03097382,-0.002960666,0.0004224104,0.001098323,-0.0006139682,-0.0008174961,-0.03780899,192.168.1.6,10.136.42.164,5,stationary,2,2014-09-21 00:27:52.066,0,2014-09-21 00:18:59.523,0
2014-09-21 00:27:55.800,143,1.43,0,0,0,0,0,0,0,-1,-0.02592468,0.03096008,-1.035736,0,0,0,0,0,-1,-0.01436935,0.005126053,0.02826413,-0.4322413,-0.02440131,-0.03098806,-0.003037202,-0.001976067,0.004834763,0.0004919155,0.001319758,-0.03596441,192.168.1.6,10.136.42.164,5,stationary,2,2014-09-21 00:27:52.066,0,2014-09-21 00:18:59.523,0
2014-09-21 00:27:55.829,144,1.44,0,0,0,0,0,0,0,-1,-0.02603149,0.03164673,-1.032181,0,0,0,0,0,-1,-0.02193007,0.006394516,0.02684972,-0.4321566,-0.02436259,-0.03099164,-0.006811398,0.001687265,0.00473982,-0.00078274,0.002994641,-0.03555159,192.168.1.6,10.136.42.164,5,stationary,2,2014-09-21 00:27:52.066,0,2014-09-21 00:18:59.523,0
2014-09-21 00:27:55.852,145,1.45,0,0,0,0,0,0,0,-1,-0.02412415,0.03118896,-1.033783,0,0,0,0,0,-1,-0.02193007,0.006394516,0.02684972,-0.4321566,-0.02436259,-0.03099164,-0.006811398,0.001687265,0.00473982,-0.00078274,0.002994641,-0.03555159,192.168.1.6,10.136.42.164,5,stationary,2,2014-09-21 00:27:52.066,0,2014-09-21 00:18:59.523,0
2014-09-21 00:27:55.893,146,1.46,0,0,0,0,0,0,0,-1,-0.02580261,0.03160095,-1.032867,0,0,0,0,0,-1,-0.02192341,0.007604656,0.026846,-0.4319234,-0.02434562,-0.03094832,0.0007917477,0.0004044264,0.003668707,-0.003622547,0.0008559335,-0.03507682,192.168.1.6,10.136.42.164,5,stationary,2,2014-09-21 00:27:52.066,0,2014-09-21 00:18:59.523,0
2014-09-21 00:27:55.918,147,1.47,0,0,0,0,0,0,0,-1,-0.02546692,0.03317261,-1.03511,0,0,0,0,0,-1,-0.01942164,0.006379869,0.02814855,-0.4319234,-0.02434562,-0.03094832,0.0007917477,0.0004044264,0.003668707,-0.003622547,0.0008559335,-0.03507682,192.168.1.6,10.136.42.164,5,stationary,2,2014-09-21 00:27:52.066,0,2014-09-21 00:18:59.523,0
2014-09-21 00:27:55.945,148,1.48,0,0,0,0,0,0,0,-1,-0.02243042,0.03001404,-1.035049,0,0,0,0,0,-1,-0.01566951,0.006361493,0.03071823,-0.4317131,-0.024321,-0.03095544,0.0008457497,0.002838159,0.003599359,-0.0004275484,-6.67097e-05,-0.0353511,192.168.1.6,10.136.42.164,5,stationary,2,2014-09-21 00:27:52.066,0,2014-09-21 00:18:59.523,0
2014-09-21 00:27:55.979,149,1.49,0,0,0,0,0,0,0,-1,-0.02635193,0.03286743,-1.035706,0,0,0,0,0,-1,-0.01564181,0.007564443,0.02947161,-0.4316401,-0.02426144,-0.03089725,0.0008680241,-0.0008062971,0.001124858,-9.028566e-05,0.0004797314,-0.03626338,192.168.1.6,10.136.42.164,5,stationary,2,2014-09-21 00:27:52.066,0,2014-09-21 00:18:59.523,0
2014-09-21 00:27:56.003,150,1.5,0,0,0,0,0,0,0,-1,-0.02505493,0.03320312,-1.036774,0,0,0,0,0,-1,-0.01941391,0.003952397,0.02691311,-0.431588,-0.0242829,-0.03086464,0.002083049,0.001624519,0.004874078,-0.002235572,-3.69901e-05,-0.03646126,192.168.1.6,10.136.42.164,5,stationary,2,2014-09-21 00:27:52.066,0,2014-09-21 00:18:59.523,0
2014-09-21 00:27:56.034,151,1.51,0,0,0,0,0,0,0,-1,-0.02532959,0.03100586,-1.035629,0,0,0,0,0,-1,-0.02069303,0.005180647,0.02812431,-0.4314521,-0.02436096,-0.03098618,-0.005504831,-0.00194767,0.003474881,-0.001745672,0.001275858,-0.03483422,192.168.1.6,10.136.42.164,5,stationary,2,2014-09-21 00:27:52.066,0,2014-09-21 00:18:59.523,0
2014-09-21 00:27:56.066,152,1.52,0,0,0,0,0,0,0,-1,-0.02331543,0.03067017,-1.036667,0,0,0,0,0,-1,-0.01944933,0.005176919,0.02939517,-0.4314112,-0.02436987,-0.03103574,0.0008465527,-0.0007992897,0.002368174,-0.0008060164,0.001333131,-0.03677384,192.168.1.6,10.136.42.164,5,stationary,2,2014-09-21 00:27:52.066,0,2014-09-21 00:18:59.523,0
2014-09-21 00:27:56.088,153,1.53,0,0,0,0,0,0,0,-1,-0.02453613,0.03111267,-1.037292,0,0,0,0,0,-1,-0.01944933,0.005176919,0.02939517,-0.4314112,-0.02436987,-0.03103574,0.0008465527,-0.0007992897,0.002368174,-0.0008060164,0.001333131,-0.03677384,192.168.1.6,10.136.42.164,5,stationary,2,2014-09-21 00:27:52.066,0,2014-09-21 00:18:59.523,0
2014-09-21 00:27:56.123,154,1.54,0,0,0,0,0,0,0,-1,-0.02471924,0.03041077,-1.035538,0,0,0,0,0,-1,-0.02072845,0.006405169,0.03060638,-0.4312491,-0.02427022,-0.03101439,0.0009001124,-0.002002589,0.001068836,0.001367986,0.0017512,-0.03622144,192.168.1.6,10.136.42.164,5,stationary,2,2014-09-21 00:27:52.066,0,2014-09-21 00:18:59.523,0
2014-09-21 00:27:56.151,155,1.55,0,0,0,0,0,0,0,-1,-0.02301025,0.03102112,-1.036453,0,0,0,0,0,-1,-0.01941391,0.003952397,0.02691311,-0.4311475,-0.02427541,-0.03100188,0.0008094633,-0.003183889,0.006044281,-0.0003510686,0.000924468,-0.03783861,192.168.1.6,10.136.42.164,5,stationary,2,2014-09-21 00:27:52.066,0,2014-09-21 00:18:59.523,0
2014-09-21 00:27:56.195,156,1.56,0,0,0,0,0,0,0,-1,-0.02389526,0.03015137,-1.034561,0,0,0,0,0,-1,-0.01689882,0.00514789,0.0282082,-0.4310226,-0.02427693,-0.03094259,0.0008930667,0.0004253992,0.002304612,0.0002608464,-0.001152499,-0.03791311,192.168.1.6,10.136.42.164,5,stationary,2,2014-09-21 00:27:52.066,0,2014-09-21 00:18:59.523,0
2014-09-21 00:27:56.221,157,1.57,0,0,0,0,0,0,0,-1,-0.02337646,0.03153992,-1.036133,0,0,0,0,0,-1,-0.02067199,0.005173457,0.02688142,-0.430947,-0.02426895,-0.03090958,-0.005506723,-0.001918528,0.005901022,0.0003597116,-0.0007532948,-0.03533316,192.168.1.6,10.136.42.164,5,stationary,2,2014-09-21 00:27:52.066,0,2014-09-21 00:18:59.523,0
2014-09-21 00:27:56.241,158,1.58,0,0,0,0,0,0,0,-1,-0.02488708,0.02935791,-1.035278,0,0,0,0,0,-1,-0.01823333,0.003970241,0.03191266,-0.430947,-0.02426895,-0.03090958,-0.005506723,-0.001918528,0.005901022,0.0003597116,-0.0007532948,-0.03533316,192.168.1.6,10.136.42.164,5,stationary,2,2014-09-21 00:27:52.066,0,2014-09-21 00:18:59.523,0
2014-09-21 00:27:56.270,159,1.59,0,0,0,0,0,0,0,-1,-0.02497864,0.0329895,-1.03624,0,0,0,0,0,-1,-0.0232225,0.005202485,0.02806839,-0.4306876,-0.02431352,-0.03089981,0.002189707,-0.0007815741,0.002275652,0.0004805453,0.004856449,-0.03524238,192.168.1.6,10.136.42.164,5,stationary,2,2014-09-21 00:27:52.066,0,2014-09-21 00:18:59.523,0
2014-09-21 00:27:56.302,160,1.6,0,0,0,0,0,0,0,-1,-0.02540588,0.02975464,-1.037399,0,0,0,0,0,-1,-0.01814358,0.00878923,0.02816905,-0.4306341,-0.02427085,-0.03093968,-0.001618941,0.0004687164,0.003431043,0.0008956486,-5.179179e-06,-0.03525784,192.168.1.6,10.136.42.164,5,stationary,2,2014-09-21 00:27:52.066,0,2014-09-21 00:18:59.523,0
2014-09-21 00:27:56.325,161,1.61,0,0,0,0,0,0,0,-1,-0.02540588,0.02975464,-1.037399,0,0,0,0,0,-1,-0.01814358,0.00878923,0.02816905,-0.4306341,-0.02427085,-0.03093968,-0.001618941,0.0004687164,0.003431043,0.0008956486,-5.179179e-06,-0.03525784,192.168.1.6,10.136.42.164,5,stationary,2,2014-09-21 00:27:52.066,0,2014-09-21 00:18:59.523,0
2014-09-21 00:27:56.357,162,1.62,0,0,0,0,0,0,0,-1,-0.02497864,0.03056335,-1.034561,0,0,0,0,0,-1,-0.01560639,0.006339921,0.02698954,-0.4304611,-0.02415492,-0.03085477,0.00221732,0.0004217514,0.001029455,-0.003156899,0.001559789,-0.0376633,192.168.1.6,10.136.42.164,5,stationary,2,2014-09-21 00:27:52.066,0,2014-09-21 00:18:59.523,0
2014-09-21 00:27:56.388,163,1.63,0,0,0,0,0,0,0,-1,-0.02325439,0.03253174,-1.03537,0,0,0,0,0,-1,-0.02317376,0.006398244,0.02557886,-0.4304128,-0.02414137,-0.03081717,0.0008895408,0.0004542447,0.004730287,-0.001202024,0.0009107334,-0.03860786,192.168.1.6,10.136.42.164,5,stationary,2,2014-09-21 00:27:52.066,0,2014-09-21 00:18:59.523,0
2014-09-21 00:27:56.410,164,1.64,0,0,0,0,0,0,0,-1,-0.02548218,0.0315094,-1.03714,0,0,0,0,0,-1,-0.02317376,0.006398244,0.02557886,-0.4304128,-0.02414137,-0.03081717,0.0008895408,0.0004542447,0.004730287,-0.001202024,0.0009107334,-0.03860786,192.168.1.6,10.136.42.164,5,stationary,2,2014-09-21 00:27:52.066,0,2014-09-21 00:18:59.523,0
2014-09-21 00:27:56.449,165,1.65,0,0,0,0,0,0,0,-1,-0.02526855,0.03125,-1.036209,0,0,0,0,0,-1,-0.01814252,0.005151619,0.02693734,-0.4302607,-0.02408688,-0.0307803,-0.004106526,0.001713561,0.003313802,-0.0004019583,-0.0006851069,-0.03831549,192.168.1.6,10.136.42.164,5,stationary,2,2014-09-21 00:27:52.066,0,2014-09-21 00:18:59.523,0
2014-09-21 00:27:56.474,166,1.66,0,0,0,0,0,0,0,-1,-0.02323914,0.03193665,-1.036133,0,0,0,0,0,-1,-0.01561305,0.005129781,0.02699327,-0.4302301,-0.02408575,-0.03075761,-0.0003045991,-0.0007466804,0.002162303,-0.001196522,0.0007566385,-0.03712458,192.168.1.6,10.136.42.164,5,stationary,2,2014-09-21 00:27:52.066,0,2014-09-21 00:18:59.523,0
2014-09-21 00:27:56.505,167,1.67,0,0,0,0,0,0,0,-1,-0.02272034,0.03285217,-1.035461,0,0,0,0,0,-1,-0.01564847,0.006354302,0.02947534,-0.4300892,-0.02411064,-0.03087086,-0.004113463,0.0005038304,0.003317886,-0.001263291,0.0005213747,-0.0364878,192.168.1.6,10.136.42.164,5,stationary,2,2014-09-21 00:27:52.066,0,2014-09-21 00:18:59.523,0
2014-09-21 00:27:56.540,168,1.68,0,0,0,0,0,0,0,-1,-0.02404785,0.0297699,-1.035583,0,0,0,0,0,-1,-0.01819125,0.00395586,0.02942687,-0.430002,-0.02404774,-0.0308695,-0.0003335564,0.001688711,0.00464103,0.001313634,0.001987578,-0.03622685,192.168.1.6,10.136.42.164,5,stationary,2,2014-09-21 00:27:52.066,0,2014-09-21 00:18:59.523,0
2014-09-21 00:27:56.560,169,1.69,0,0,0,0,0,0,0,-1,-0.02522278,0.03092957,-1.033966,0,0,0,0,0,-1,-0.02065095,0.005166266,0.02563852,-0.430002,-0.02404774,-0.0308695,-0.0003335564,0.001688711,0.00464103,0.001313634,0.001987578,-0.03622685,192.168.1.6,10.136.42.164,5,stationary,2,2014-09-21 00:27:52.066,0,2014-09-21 00:18:59.523,0
2014-09-21 00:27:56.585,170,1.7,0,0,0,0,0,0,0,-1,-0.02619934,0.02980042,-1.035217,0,0,0,0,0,-1,-0.02193007,0.006394516,0.02684972,-0.4298654,-0.02402,-0.03091584,-0.005366101,0.0005341985,0.004475503,-0.003673231,0.0001254657,-0.03525105,192.168.1.6,10.136.42.164,5,stationary,2,2014-09-21 00:27:52.066,0,2014-09-21 00:18:59.523,0
2014-09-21 00:27:56.622,171,1.71,0,0,0,0,0,0,0,-1,-0.02363586,0.03129578,-1.035965,0,0,0,0,0,-1,-0.01567616,0.005151352,0.03072196,-0.429836,-0.02402477,-0.03090779,0.00227128,0.00166438,0.002153857,-0.0006319574,-0.0001258936,-0.03729559,192.168.1.6,10.136.42.164,5,stationary,2,2014-09-21 00:27:52.066,0,2014-09-21 00:18:59.523,0
2014-09-21 00:27:56.644,172,1.72,0,0,0,0,0,0,0,-1,-0.02479553,0.03179932,-1.034027,0,0,0,0,0,-1,-0.01567616,0.005151352,0.03072196,-0.429836,-0.02402477,-0.03090779,0.00227128,0.00166438,0.002153857,-0.0006319574,-0.0001258936,-0.03729559,192.168.1.6,10.136.42.164,5,stationary,2,2014-09-21 00:27:52.066,0,2014-09-21 00:18:59.523,0
2014-09-21 00:27:56.674,173,1.73,0,0,0,0,0,0,0,-1,-0.02256775,0.03344727,-1.035843,0,0,0,0,0,-1,-0.02071407,0.005187838,0.02936721,-0.4296434,-0.0239518,-0.03091966,-0.0002359002,-0.001958115,-0.0003764353,0.000592112,-0.001373721,-0.03657705,192.168.1.6,10.136.42.164,5,stationary,2,2014-09-21 00:27:52.066,0,2014-09-21 00:18:59.523,0
2014-09-21 00:27:56.705,174,1.74,0,0,0,0,0,0,0,-1,-0.02436829,0.03381348,-1.035355,0,0,0,0,0,-1,-0.01685009,0.00634365,0.02571868,-0.4295657,-0.02391459,-0.03099862,-0.00282206,-0.0007042864,0.003292744,-0.0008031528,0.001080314,-0.03662438,192.168.1.6,10.136.42.164,5,stationary,2,2014-09-21 00:27:52.066,0,2014-09-21 00:18:59.523,0
2014-09-21 00:27:56.729,175,1.75,0,0,0,0,0,0,0,-1,-0.02436829,0.03381348,-1.035355,0,0,0,0,0,-1,-0.01695528,0.006379602,0.03193317,-0.4295557,-0.02393448,-0.03096155,0.001020878,0.0004585865,0.0008871607,-0.002461724,0.0007511657,-0.03628801,192.168.1.6,10.136.42.164,5,stationary,2,2014-09-21 00:27:52.066,0,2014-09-21 00:18:59.523,0
2014-09-21 00:27:56.763,176,1.76,0,0,0,0,0,0,0,-1,-0.0255127,0.03208923,-1.036255,0,0,0,0,0,-1,-0.01559973,0.007550062,0.02698581,-0.4293621,-0.02389809,-0.03096339,-0.005330561,-0.0006895753,0.001994212,-0.0002245255,0.0002305241,-0.03853024,192.168.1.6,10.136.42.164,5,stationary,2,2014-09-21 00:27:52.066,0,2014-09-21 00:18:59.523,0
2014-09-21 00:27:56.789,177,1.77,0,0,0,0,0,0,0,-1,-0.02310181,0.03106689,-1.036285,0,0,0,0,0,-1,-0.01817022,0.003948669,0.02818397,-0.4293248,-0.02390556,-0.03095668,-0.0001837116,-0.001953955,-0.001675806,-0.001620867,0.001137493,-0.03701959,192.168.1.6,10.136.42.164,5,stationary,2,2014-09-21 00:27:52.066,0,2014-09-21 00:18:59.523,0
2014-09-21 00:27:56.812,178,1.78,0,0,0,0,0,0,0,-1,-0.02314758,0.03018188,-1.035248,0,0,0,0,0,-1,-0.01817022,0.003948669,0.02818397,-0.4293248,-0.02390556,-0.03095668,-0.0001837116,-0.001953955,-0.001675806,-0.001620867,0.001137493,-0.03701959,192.168.1.6,10.136.42.164,5,stationary,2,2014-09-21 00:27:52.066,0,2014-09-21 00:18:59.523,0
